[
  {
    "IATA": "AAQ",
    "cityCode": "AAQ",
    "countryCode": "7",
    "name": "Anapa Airport",
    "latitude": 45.0021,
    "longitude": 37.3473,
    "city": "Anapa",
    "country": "Russia",
    "type": "MEDIUM"
  },
  {
    "IATA": "AAT",
    "cityCode": "AAT",
    "countryCode": "86",
    "name": "Altay Airport",
    "latitude": 47.7499,
    "longitude": 88.0858,
    "city": "Awiytan",
    "country": "China",
    "type": "MEDIUM"
  },
  {
    "IATA": "ABA",
    "cityCode": "ABA",
    "countryCode": "7",
    "name": "Abakan International Airport",
    "latitude": 53.74,
    "longitude": 91.385,
    "city": "Podsineye",
    "country": "Russia",
    "type": "MEDIUM"
  },
  {
    "IATA": "ABG",
    "cityCode": "ABG",
    "countryCode": "61",
    "name": "Abingdon Airport",
    "latitude": -17.6167,
    "longitude": 143.167,
    "city": "Abingdon",
    "country": "Australia",
    "type": "SMALL"
  },
  {
    "IATA": "ABI",
    "cityCode": "ABI",
    "countryCode": "1",
    "name": "Abilene Regional Airport",
    "latitude": 32.4113,
    "longitude": -99.6819,
    "city": "Abilene",
    "country": "United States",
    "type": "MEDIUM"
  },
  {
    "IATA": "ABL",
    "cityCode": "ABL",
    "countryCode": "1",
    "name": "Ambler Airport",
    "latitude": 67.1063,
    "longitude": -157.857,
    "city": "Ambler",
    "country": "United States",
    "type": "MEDIUM"
  },
  {
    "IATA": "ABM",
    "cityCode": "ABM",
    "countryCode": "61",
    "name": "Northern Peninsula Airport",
    "latitude": -10.9508,
    "longitude": 142.459,
    "city": "Barnaga",
    "country": "Australia",
    "type": "SMALL"
  },
  {
    "IATA": "ABY",
    "cityCode": "ABY",
    "countryCode": "1",
    "name": "Southwest Georgia Regional Airport",
    "latitude": 31.5355,
    "longitude": -84.1945,
    "city": "Albany",
    "country": "United States",
    "type": "MEDIUM"
  },
  {
    "IATA": "ACF",
    "cityCode": "ACF",
    "countryCode": "86",
    "name": "Alaer Talimu Airport",
    "latitude": 40.464167,
    "longitude": 81.246944,
    "city": "Aral",
    "country": "China",
    "type": "SMALL"
  },
  {
    "IATA": "ACS",
    "cityCode": "ACS",
    "countryCode": "7",
    "name": "Achinsk Airport",
    "latitude": 56.2683,
    "longitude": 90.5708,
    "city": "Achinsk",
    "country": "Russia",
    "type": "MEDIUM"
  },
  {
    "IATA": "ACX",
    "cityCode": "ACX",
    "countryCode": "86",
    "name": "Xingyi Wanfenglin Airport",
    "latitude": 25.0864,
    "longitude": 104.959,
    "city": "Xinzhou",
    "country": "China",
    "type": "MEDIUM"
  },
  {
    "IATA": "ADH",
    "cityCode": "ADH",
    "countryCode": "7",
    "name": "Aldan Airport",
    "latitude": 58.6028,
    "longitude": 125.409,
    "city": "Aldan",
    "country": "Russia",
    "type": "SMALL"
  },
  {
    "IATA": "ADK",
    "cityCode": "ADK",
    "countryCode": "1",
    "name": "Adak Airport",
    "latitude": 51.878,
    "longitude": -176.646,
    "city": "Adak Island",
    "country": "United States",
    "type": "MEDIUM"
  },
  {
    "IATA": "ADO",
    "cityCode": "ADO",
    "countryCode": "61",
    "name": "Andamooka Airport",
    "latitude": -30.4383,
    "longitude": 137.137,
    "city": "Andamooka",
    "country": "Australia",
    "type": "SMALL"
  },
  {
    "IATA": "ADQ",
    "cityCode": "ADQ",
    "countryCode": "1",
    "name": "Kodiak Airport",
    "latitude": 57.75,
    "longitude": -152.494,
    "city": "Kodiak",
    "country": "United States",
    "type": "MEDIUM"
  },
  {
    "IATA": "AEB",
    "cityCode": "AEB",
    "countryCode": "86",
    "name": "Baise Bama Airport",
    "latitude": 23.7206,
    "longitude": 106.96,
    "city": "Tianzhou",
    "country": "China",
    "type": "MEDIUM"
  },
  {
    "IATA": "AEM",
    "cityCode": "AEM",
    "countryCode": "7",
    "name": "Amgu Airport",
    "latitude": 45.8413,
    "longitude": 137.674,
    "city": "Amgu",
    "country": "Russia",
    "type": "SMALL"
  },
  {
    "IATA": "AER",
    "cityCode": "AER",
    "countryCode": "7",
    "name": "Sochi International Airport",
    "latitude": 43.4499,
    "longitude": 39.9566,
    "city": "Orel-Izumrud",
    "country": "Russia",
    "type": "LARGE"
  },
  {
    "IATA": "AET",
    "cityCode": "AET",
    "countryCode": "1",
    "name": "Allakaket Airport",
    "latitude": 66.5518,
    "longitude": -152.622,
    "city": "Allakaiket",
    "country": "United States",
    "type": "SMALL"
  },
  {
    "IATA": "AGJ",
    "cityCode": "AGJ",
    "countryCode": "81",
    "name": "Aguni Airport",
    "latitude": 26.5925,
    "longitude": 127.241,
    "city": "Aguni",
    "country": "Japan",
    "type": "SMALL"
  },
  {
    "IATA": "AGS",
    "cityCode": "AGS",
    "countryCode": "1",
    "name": "Augusta Regional Airport at Bush Field",
    "latitude": 33.3699,
    "longitude": -81.9645,
    "city": "Augusta",
    "country": "United States",
    "type": "MEDIUM"
  },
  {
    "IATA": "AHJ",
    "cityCode": "AHJ",
    "countryCode": "86",
    "name": "Hongyuan Airport",
    "latitude": 32.5315,
    "longitude": 102.352,
    "city": "Qiongxi",
    "country": "China",
    "type": "MEDIUM"
  },
  {
    "IATA": "AIN",
    "cityCode": "AIN",
    "countryCode": "1",
    "name": "Wainwright Airport",
    "latitude": 70.638,
    "longitude": -159.995,
    "city": "Wainwright",
    "country": "United States",
    "type": "MEDIUM"
  },
  {
    "IATA": "AIZ",
    "cityCode": "AIZ",
    "countryCode": "1",
    "name": "Lee C. Fine Memorial Airport",
    "latitude": 38.096,
    "longitude": -92.5495,
    "city": "Kaiser/Lake Ozark",
    "country": "United States",
    "type": "SMALL"
  },
  {
    "IATA": "AKA",
    "cityCode": "AKA",
    "countryCode": "86",
    "name": "Ankang Wulipu Airport",
    "latitude": 32.7081,
    "longitude": 108.931,
    "city": "Ankang",
    "country": "China",
    "type": "SMALL"
  },
  {
    "IATA": "AKB",
    "cityCode": "AKB",
    "countryCode": "1",
    "name": "Atka Airport",
    "latitude": 52.2203,
    "longitude": -174.206,
    "city": "Atka",
    "country": "United States",
    "type": "SMALL"
  },
  {
    "IATA": "AKI",
    "cityCode": "AKI",
    "countryCode": "1",
    "name": "Akiak Airport",
    "latitude": 60.9029,
    "longitude": -161.231,
    "city": "Akiak",
    "country": "United States",
    "type": "SMALL"
  },
  {
    "IATA": "AKK",
    "cityCode": "AKK",
    "countryCode": "1",
    "name": "Akhiok Airport",
    "latitude": 56.9387,
    "longitude": -154.183,
    "city": "Akhiok",
    "country": "United States",
    "type": "SMALL"
  },
  {
    "IATA": "AKN",
    "cityCode": "AKN",
    "countryCode": "1",
    "name": "King Salmon Airport",
    "latitude": 58.6768,
    "longitude": -156.649,
    "city": "King Salmon",
    "country": "United States",
    "type": "MEDIUM"
  },
  {
    "IATA": "AKP",
    "cityCode": "AKP",
    "countryCode": "1",
    "name": "Anaktuvuk Pass Airport",
    "latitude": 68.1336,
    "longitude": -151.743,
    "city": "Anaktuvuk",
    "country": "United States",
    "type": "MEDIUM"
  },
  {
    "IATA": "AKU",
    "cityCode": "AKU",
    "countryCode": "86",
    "name": "Aksu Airport",
    "latitude": 41.2625,
    "longitude": 80.2917,
    "city": "Aksu",
    "country": "China",
    "type": "MEDIUM"
  },
  {
    "IATA": "AMA",
    "cityCode": "AMA",
    "countryCode": "1",
    "name": "Rick Husband Amarillo International Airport",
    "latitude": 35.2194,
    "longitude": -101.706,
    "city": "Amarillo",
    "country": "United States",
    "type": "MEDIUM"
  },
  {
    "IATA": "AMT",
    "cityCode": "AMT",
    "countryCode": "61",
    "name": "Amata Airport",
    "latitude": -26.1083,
    "longitude": 131.207,
    "city": "Amata",
    "country": "Australia",
    "type": "SMALL"
  },
  {
    "IATA": "AMV",
    "cityCode": "AMV",
    "countryCode": "7",
    "name": "Amderma Airport",
    "latitude": 69.7633,
    "longitude": 61.5564,
    "city": "Vorgashor",
    "country": "Russia",
    "type": "MEDIUM"
  },
  {
    "IATA": "AMX",
    "cityCode": "AMX",
    "countryCode": "61",
    "name": "Ammaroo",
    "latitude": -21.7383003,
    "longitude": 135.2420044,
    "city": "Ammaroo",
    "country": "Australia",
    "type": "SMALL"
  },
  {
    "IATA": "ANC",
    "cityCode": "ANC",
    "countryCode": "1",
    "name": "Ted Stevens Anchorage International Airport",
    "latitude": 61.1744,
    "longitude": -149.996,
    "city": "Anchorage",
    "country": "United States",
    "type": "LARGE"
  },
  {
    "IATA": "ANE",
    "cityCode": "ANE",
    "countryCode": "33",
    "name": "Angers - Loire Airport",
    "latitude": 47.5603,
    "longitude": -0.312222,
    "city": "Angers",
    "country": "France",
    "type": "MEDIUM"
  },
  {
    "IATA": "ANI",
    "cityCode": "ANI",
    "countryCode": "1",
    "name": "Aniak Airport",
    "latitude": 61.5816,
    "longitude": -159.543,
    "city": "Aniak",
    "country": "United States",
    "type": "MEDIUM"
  },
  {
    "IATA": "ANN",
    "cityCode": "ANN",
    "countryCode": "1",
    "name": "Annette Island Airport",
    "latitude": 55.0424,
    "longitude": -131.572,
    "city": "Annette",
    "country": "United States",
    "type": "MEDIUM"
  },
  {
    "IATA": "ANV",
    "cityCode": "ANV",
    "countryCode": "1",
    "name": "Anvik Airport",
    "latitude": 62.6467,
    "longitude": -160.191,
    "city": "Anvik",
    "country": "United States",
    "type": "MEDIUM"
  },
  {
    "IATA": "AOJ",
    "cityCode": "AOJ",
    "countryCode": "81",
    "name": "Aomori Airport",
    "latitude": 40.7347,
    "longitude": 140.691,
    "city": "Aomori",
    "country": "Japan",
    "type": "MEDIUM"
  },
  {
    "IATA": "APA",
    "cityCode": "DEN",
    "countryCode": "1",
    "name": "Centennial Airport",
    "latitude": 39.5701,
    "longitude": -104.849,
    "city": "Denver",
    "country": "United States",
    "type": "MEDIUM"
  },
  {
    "IATA": "AQG",
    "cityCode": "AQG",
    "countryCode": "86",
    "name": "Anqing Tianzhushan Airport",
    "latitude": 30.5822,
    "longitude": 117.05,
    "city": "Anqing",
    "country": "China",
    "type": "MEDIUM"
  },
  {
    "IATA": "ARC",
    "cityCode": "ARC",
    "countryCode": "1",
    "name": "Arctic Village Airport",
    "latitude": 68.1147,
    "longitude": -145.579,
    "city": "Arctic Village",
    "country": "United States",
    "type": "MEDIUM"
  },
  {
    "IATA": "ARH",
    "cityCode": "ARH",
    "countryCode": "7",
    "name": "Talagi Airport",
    "latitude": 64.6003,
    "longitude": 40.7167,
    "city": "Arkhangel'sk",
    "country": "Russia",
    "type": "MEDIUM"
  },
  {
    "IATA": "ASF",
    "cityCode": "ASF",
    "countryCode": "7",
    "name": "Narimanovo Airport",
    "latitude": 46.2833,
    "longitude": 48.0063,
    "city": "Yaksatovo",
    "country": "Russia",
    "type": "MEDIUM"
  },
  {
    "IATA": "ASJ",
    "cityCode": "ASJ",
    "countryCode": "81",
    "name": "Amami Airport",
    "latitude": 28.4306,
    "longitude": 129.713,
    "city": "Amami",
    "country": "Japan",
    "type": "MEDIUM"
  },
  {
    "IATA": "ASP",
    "cityCode": "ASP",
    "countryCode": "61",
    "name": "Alice Springs Airport",
    "latitude": -23.8067,
    "longitude": 133.902,
    "city": "Alice Springs",
    "country": "Australia",
    "type": "MEDIUM"
  },
  {
    "IATA": "ASQ",
    "cityCode": "ASQ",
    "countryCode": "1",
    "name": "Austin",
    "latitude": 39.4664739,
    "longitude": -117.1970824,
    "city": "Austin",
    "country": "United States",
    "type": "SMALL"
  },
  {
    "IATA": "ATK",
    "cityCode": "ATK",
    "countryCode": "1",
    "name": "Atqasuk Edward Burnell Sr. Memorial Airport",
    "latitude": 70.4673,
    "longitude": -157.436,
    "city": "Atqasuk",
    "country": "United States",
    "type": "MEDIUM"
  },
  {
    "IATA": "ATL",
    "cityCode": "ATL",
    "countryCode": "1",
    "name": "Hartsfield-Jackson Atlanta International Airport",
    "latitude": 33.6367,
    "longitude": -84.4281,
    "city": "Atlanta",
    "country": "United States",
    "type": "LARGE"
  },
  {
    "IATA": "AUD",
    "cityCode": "AUD",
    "countryCode": "61",
    "name": "Augustus Downs Airport",
    "latitude": -18.515,
    "longitude": 139.878,
    "city": "Augustus Downs",
    "country": "Australia",
    "type": "SMALL"
  },
  {
    "IATA": "AUK",
    "cityCode": "AUK",
    "countryCode": "1",
    "name": "Alakanuk Airport",
    "latitude": 62.689167,
    "longitude": -164.61084,
    "city": "Alakanuk",
    "country": "United States",
    "type": "SMALL"
  },
  {
    "IATA": "AUU",
    "cityCode": "AUU",
    "countryCode": "61",
    "name": "Aurukun Airport",
    "latitude": -13.3541,
    "longitude": 141.721,
    "city": "Aurukun Mission",
    "country": "Australia",
    "type": "SMALL"
  },
  {
    "IATA": "AVA",
    "cityCode": "AVA",
    "countryCode": "86",
    "name": "Anshun Huangguoshu Airport",
    "latitude": 26.2606,
    "longitude": 105.873,
    "city": "Anshun",
    "country": "China",
    "type": "MEDIUM"
  },
  {
    "IATA": "AVG",
    "cityCode": "AVG",
    "countryCode": "61",
    "name": "Auvergne Airport",
    "latitude": -15.7,
    "longitude": 130,
    "city": "Auvergne",
    "country": "Australia",
    "type": "SMALL"
  },
  {
    "IATA": "AVX",
    "cityCode": "AVX",
    "countryCode": "1",
    "name": "Catalina Airport",
    "latitude": 33.4049,
    "longitude": -118.416,
    "city": "Avalon",
    "country": "United States",
    "type": "SMALL"
  },
  {
    "IATA": "AWN",
    "cityCode": "AWN",
    "countryCode": "61",
    "name": "Alton Downs",
    "latitude": -26.25,
    "longitude": 138.66667,
    "city": "Afton Downs",
    "country": "Australia",
    "type": "SMALL"
  },
  {
    "IATA": "AWP",
    "cityCode": "AWP",
    "countryCode": "61",
    "name": "Austral Downs Airport",
    "latitude": -20.4940024,
    "longitude": 137.7652929,
    "city": "Austral Downs",
    "country": "Australia",
    "type": "SMALL"
  },
  {
    "IATA": "AXC",
    "cityCode": "AXC",
    "countryCode": "61",
    "name": "Aramac Airport",
    "latitude": -22.9667,
    "longitude": 145.242,
    "city": "Aramac",
    "country": "Australia",
    "type": "SMALL"
  },
  {
    "IATA": "AXJ",
    "cityCode": "AXJ",
    "countryCode": "81",
    "name": "Amakusa Airfield",
    "latitude": 32.4825,
    "longitude": 130.159,
    "city": "Hondo",
    "country": "Japan",
    "type": "SMALL"
  },
  {
    "IATA": "AXL",
    "cityCode": "AXL",
    "countryCode": "61",
    "name": "Alexandria Homestead Airport",
    "latitude": -19.0602,
    "longitude": 136.71,
    "city": "Alexandria",
    "country": "Australia",
    "type": "SMALL"
  },
  {
    "IATA": "AXS",
    "cityCode": "LTS",
    "countryCode": "1",
    "name": "Altus/Quartz Mountain Regional Airport",
    "latitude": 34.698,
    "longitude": -99.3385,
    "city": "Altus",
    "country": "United States",
    "type": "SMALL"
  },
  {
    "IATA": "AXT",
    "cityCode": "AXT",
    "countryCode": "81",
    "name": "Akita Airport",
    "latitude": 39.6156,
    "longitude": 140.219,
    "city": "Akita",
    "country": "Japan",
    "type": "MEDIUM"
  },
  {
    "IATA": "AYL",
    "cityCode": "AYL",
    "countryCode": "61",
    "name": "Anthony Lagoon",
    "latitude": -18.0197941,
    "longitude": 135.5420203,
    "city": "Anthony Lagoon",
    "country": "Australia",
    "type": "SMALL"
  },
  {
    "IATA": "AYN",
    "cityCode": "AYN",
    "countryCode": "86",
    "name": "Anyang Airport",
    "latitude": 36.1339,
    "longitude": 114.344,
    "city": "Anyang",
    "country": "China",
    "type": "SMALL"
  },
  {
    "IATA": "AYQ",
    "cityCode": "AYQ",
    "countryCode": "61",
    "name": "Ayers Rock Airport",
    "latitude": -25.1861,
    "longitude": 130.976,
    "city": "Ayers Rock",
    "country": "Australia",
    "type": "MEDIUM"
  },
  {
    "IATA": "BAR",
    "cityCode": "BAR",
    "countryCode": "1",
    "name": "Baker AAF",
    "latitude": 55.333332,
    "longitude": -133.6,
    "city": null,
    "country": "China",
    "type": "MEDIUM"
  },
  {
    "IATA": "BAV",
    "cityCode": "BAV",
    "countryCode": "86",
    "name": "Baotou Airport",
    "latitude": 40.56,
    "longitude": 109.997,
    "city": "Shulinzhao",
    "country": "China",
    "type": "MEDIUM"
  },
  {
    "IATA": "BAX",
    "cityCode": "BAX",
    "countryCode": "7",
    "name": "Barnaul Airport",
    "latitude": 53.3638,
    "longitude": 83.5385,
    "city": "Gon'ba",
    "country": "Russia",
    "type": "MEDIUM"
  },
  {
    "IATA": "BBL",
    "cityCode": "BBL",
    "countryCode": "61",
    "name": "Ballera Airport",
    "latitude": -27.4056,
    "longitude": 141.809,
    "city": null,
    "country": "Australia",
    "type": "SMALL"
  },
  {
    "IATA": "BCE",
    "cityCode": "BCE",
    "countryCode": "1",
    "name": "Bryce Canyon Airport",
    "latitude": 37.7064,
    "longitude": -112.145,
    "city": null,
    "country": "United States",
    "type": "MEDIUM"
  },
  {
    "IATA": "BCI",
    "cityCode": "BCI",
    "countryCode": "61",
    "name": "Barcaldine Airport",
    "latitude": -23.5653,
    "longitude": 145.307,
    "city": "Barcaldine",
    "country": "Australia",
    "type": "MEDIUM"
  },
  {
    "IATA": "BCS",
    "cityCode": "BCS",
    "countryCode": "1",
    "name": "Southern Seaplane",
    "latitude": 29.966667,
    "longitude": -90,
    "city": null,
    "country": "United States",
    "type": "SMALL"
  },
  {
    "IATA": "BCX",
    "cityCode": "BCX",
    "countryCode": "7",
    "name": "Beloretsk Airport",
    "latitude": 53.9381,
    "longitude": 58.34,
    "city": "Lomovka",
    "country": "Russia",
    "type": "SMALL"
  },
  {
    "IATA": "BDD",
    "cityCode": "BDD",
    "countryCode": "61",
    "name": "Badu Island Airport",
    "latitude": -10.15,
    "longitude": 142.173,
    "city": "Badu Island",
    "country": "Australia",
    "type": "SMALL"
  },
  {
    "IATA": "BDE",
    "cityCode": "BDE",
    "countryCode": "1",
    "name": "Baudette International Airport",
    "latitude": 48.7284,
    "longitude": -94.6122,
    "city": null,
    "country": "United States",
    "type": "MEDIUM"
  },
  {
    "IATA": "BDR",
    "cityCode": "BDR",
    "countryCode": "1",
    "name": "Igor I. Sikorsky Memorial Airport",
    "latitude": 41.1635,
    "longitude": -73.1262,
    "city": "Stratford",
    "country": "United States",
    "type": "MEDIUM"
  },
  {
    "IATA": "BDW",
    "cityCode": "BDW",
    "countryCode": "61",
    "name": "Bedford Downs Airport",
    "latitude": -17.2867,
    "longitude": 127.463,
    "city": null,
    "country": "Australia",
    "type": "SMALL"
  },
  {
    "IATA": "BEC",
    "cityCode": "ICT",
    "countryCode": "1",
    "name": "Beech Factory Airport",
    "latitude": 37.6945,
    "longitude": -97.215,
    "city": null,
    "country": "United States",
    "type": "SMALL"
  },
  {
    "IATA": "BEE",
    "cityCode": "BEE",
    "countryCode": "61",
    "name": "Beagle Bay",
    "latitude": -16.966667,
    "longitude": 122.666664,
    "city": null,
    "country": "Australia",
    "type": "SMALL"
  },
  {
    "IATA": "BET",
    "cityCode": "BET",
    "countryCode": "1",
    "name": "Bethel Airport",
    "latitude": 60.7798,
    "longitude": -161.838,
    "city": "Bethel",
    "country": "United States",
    "type": "MEDIUM"
  },
  {
    "IATA": "BEU",
    "cityCode": "BEU",
    "countryCode": "61",
    "name": "Bedourie Airport",
    "latitude": -24.3461,
    "longitude": 139.46,
    "city": "Bedourie",
    "country": "Australia",
    "type": "MEDIUM"
  },
  {
    "IATA": "BFC",
    "cityCode": "BFC",
    "countryCode": "61",
    "name": "Bloomfield",
    "latitude": -15.8736,
    "longitude": 145.3300018,
    "city": null,
    "country": "Australia",
    "type": "SMALL"
  },
  {
    "IATA": "BFG",
    "cityCode": "BFG",
    "countryCode": "1",
    "name": "Bullfrog Basin",
    "latitude": 37.5458239,
    "longitude": -110.713199,
    "city": null,
    "country": "United States",
    "type": "SMALL"
  },
  {
    "IATA": "BFJ",
    "cityCode": "BFJ",
    "countryCode": "86",
    "name": "Bijie Feixiong Airport",
    "latitude": 27.2671,
    "longitude": 105.472,
    "city": "Bijie",
    "country": "China",
    "type": "MEDIUM"
  },
  {
    "IATA": "BFM",
    "cityCode": "MOB",
    "countryCode": "1",
    "name": "Mobile Downtown Airport",
    "latitude": 30.6268,
    "longitude": -88.0681,
    "city": null,
    "country": "United States",
    "type": "MEDIUM"
  },
  {
    "IATA": "BFU",
    "cityCode": "BFU",
    "countryCode": "86",
    "name": "Bengbu Airport",
    "latitude": 32.8477,
    "longitude": 117.32,
    "city": "Bengbu",
    "country": "China",
    "type": "MEDIUM"
  },
  {
    "IATA": "BFV",
    "cityCode": "BFV",
    "countryCode": "66",
    "name": "Buriram Airport",
    "latitude": 15.2295,
    "longitude": 103.253,
    "city": "Satuek",
    "country": "Thailand",
    "type": "MEDIUM"
  },
  {
    "IATA": "BGN",
    "cityCode": "BGN",
    "countryCode": "7",
    "name": "Belaya Gora Airport",
    "latitude": 68.5566,
    "longitude": 146.232,
    "city": "Belaya Gora",
    "country": "Russia",
    "type": "MEDIUM"
  },
  {
    "IATA": "BGQ",
    "cityCode": "BGQ",
    "countryCode": "1",
    "name": "Big Lake Airport",
    "latitude": 61.5361,
    "longitude": -149.814,
    "city": null,
    "country": "United States",
    "type": "SMALL"
  },
  {
    "IATA": "BHQ",
    "cityCode": "BHQ",
    "countryCode": "61",
    "name": "Broken Hill Airport",
    "latitude": -32.0014,
    "longitude": 141.472,
    "city": "Broken Hill",
    "country": "Australia",
    "type": "MEDIUM"
  },
  {
    "IATA": "BHY",
    "cityCode": "BHY",
    "countryCode": "86",
    "name": "Beihai Fucheng Airport",
    "latitude": 21.5394,
    "longitude": 109.294,
    "city": "Beihai",
    "country": "China",
    "type": "SMALL"
  },
  {
    "IATA": "BIC",
    "cityCode": "BIC",
    "countryCode": "33",
    "name": "Aérodrome de Belle Île",
    "latitude": 47.3255706,
    "longitude": -3.199652228,
    "city": "Bangor",
    "country": "France",
    "type": "SMALL"
  },
  {
    "IATA": "BIG",
    "cityCode": "BIG",
    "countryCode": "1",
    "name": "Allen Army Airfield",
    "latitude": 63.9945,
    "longitude": -145.722,
    "city": null,
    "country": "United States",
    "type": "MEDIUM"
  },
  {
    "IATA": "BIP",
    "cityCode": "BIP",
    "countryCode": "61",
    "name": "Bulimba",
    "latitude": -16.15,
    "longitude": 143.75,
    "city": null,
    "country": "Australia",
    "type": "SMALL"
  },
  {
    "IATA": "BIW",
    "cityCode": "BIW",
    "countryCode": "61",
    "name": "Billiluna",
    "latitude": -19.566668,
    "longitude": 127.166664,
    "city": null,
    "country": "Australia",
    "type": "SMALL"
  },
  {
    "IATA": "BKC",
    "cityCode": "BKC",
    "countryCode": "1",
    "name": "Buckland Airport",
    "latitude": 65.9816,
    "longitude": -161.149,
    "city": "Buckland",
    "country": "United States",
    "type": "MEDIUM"
  },
  {
    "IATA": "BKH",
    "cityCode": "BKH",
    "countryCode": "1",
    "name": "Barking Sands PMRF",
    "latitude": 22.0228,
    "longitude": -159.785,
    "city": null,
    "country": "United States",
    "type": "MEDIUM"
  },
  {
    "IATA": "BKK",
    "cityCode": "BKK",
    "countryCode": "66",
    "name": "Suvarnabhumi Airport",
    "latitude": 13.6811,
    "longitude": 100.747,
    "city": "Lat Krabang",
    "country": "Thailand",
    "type": "LARGE"
  },
  {
    "IATA": "BKP",
    "cityCode": "BKP",
    "countryCode": "61",
    "name": "Barkly Downs Airport",
    "latitude": -20.4958,
    "longitude": 138.475,
    "city": null,
    "country": "Australia",
    "type": "SMALL"
  },
  {
    "IATA": "BKQ",
    "cityCode": "BKQ",
    "countryCode": "61",
    "name": "Blackall Airport",
    "latitude": -24.4278,
    "longitude": 145.429,
    "city": "Mount Enniskillen",
    "country": "Australia",
    "type": "MEDIUM"
  },
  {
    "IATA": "BLS",
    "cityCode": "BLS",
    "countryCode": "61",
    "name": "Bollon Airport",
    "latitude": -28.0583,
    "longitude": 147.483,
    "city": null,
    "country": "Australia",
    "type": "SMALL"
  },
  {
    "IATA": "BME",
    "cityCode": "BME",
    "countryCode": "61",
    "name": "Broome International Airport",
    "latitude": -17.9447,
    "longitude": 122.232,
    "city": "Broome",
    "country": "Australia",
    "type": "MEDIUM"
  },
  {
    "IATA": "BML",
    "cityCode": "BML",
    "countryCode": "1",
    "name": "Berlin Regional Airport",
    "latitude": 44.5754,
    "longitude": -71.1759,
    "city": null,
    "country": "United States",
    "type": "SMALL"
  },
  {
    "IATA": "BMP",
    "cityCode": "BMP",
    "countryCode": "61",
    "name": "Brampton Island Airport",
    "latitude": -20.8033,
    "longitude": 149.27,
    "city": null,
    "country": "Australia",
    "type": "SMALL"
  },
  {
    "IATA": "BMV",
    "cityCode": "BMV",
    "countryCode": "84",
    "name": "Buon Ma Thuot Airport",
    "latitude": 12.6683,
    "longitude": 108.12,
    "city": "Buon Ma Thuot",
    "country": "Vietnam",
    "type": "MEDIUM"
  },
  {
    "IATA": "BMX",
    "cityCode": "BMX",
    "countryCode": "1",
    "name": "Big Mountain Air Force Station",
    "latitude": 59.3612,
    "longitude": -155.259,
    "city": null,
    "country": "United States",
    "type": "SMALL"
  },
  {
    "IATA": "BOX",
    "cityCode": "BOX",
    "countryCode": "61",
    "name": "Borroloola Airport",
    "latitude": -16.0753,
    "longitude": 136.302,
    "city": null,
    "country": "Australia",
    "type": "SMALL"
  },
  {
    "IATA": "BPE",
    "cityCode": "SHP",
    "countryCode": "86",
    "name": "Qinhuangdao Beidaihe Airport",
    "latitude": 39.6664,
    "longitude": 119.059,
    "city": null,
    "country": "China",
    "type": "MEDIUM"
  },
  {
    "IATA": "BPL",
    "cityCode": "BPL",
    "countryCode": "86",
    "name": "Bole Alashankou Airport",
    "latitude": 44.895,
    "longitude": 82.3,
    "city": "Dostyq",
    "country": "China",
    "type": "MEDIUM"
  },
  {
    "IATA": "BPX",
    "cityCode": "BPX",
    "countryCode": "86",
    "name": "Qamdo Bamda Airport",
    "latitude": 30.5536,
    "longitude": 97.1083,
    "city": "Yanduo",
    "country": "China",
    "type": "MEDIUM"
  },
  {
    "IATA": "BQG",
    "cityCode": "BQG",
    "countryCode": "7",
    "name": "Bogorodskoye Airport",
    "latitude": 52.38,
    "longitude": 140.448,
    "city": "Bogorodskoye",
    "country": "Russia",
    "type": "SMALL"
  },
  {
    "IATA": "BQJ",
    "cityCode": "BQJ",
    "countryCode": "7",
    "name": "Batagay",
    "latitude": 67.6462041,
    "longitude": 134.7024568,
    "city": "Batagay",
    "country": "Russia",
    "type": "SMALL"
  },
  {
    "IATA": "BQK",
    "cityCode": "SSI",
    "countryCode": "1",
    "name": "Brunswick Golden Isles Airport",
    "latitude": 31.2588,
    "longitude": -81.4665,
    "city": "Brunswick",
    "country": "United States",
    "type": "MEDIUM"
  },
  {
    "IATA": "BQL",
    "cityCode": "BQL",
    "countryCode": "61",
    "name": "Boulia Airport",
    "latitude": -22.9133,
    "longitude": 139.9,
    "city": "Boulia",
    "country": "Australia",
    "type": "MEDIUM"
  },
  {
    "IATA": "BQS",
    "cityCode": "BQS",
    "countryCode": "7",
    "name": "Ignatyevo Airport",
    "latitude": 50.4254,
    "longitude": 127.412,
    "city": "Shangmachang",
    "country": "Russia",
    "type": "MEDIUM"
  },
  {
    "IATA": "BQW",
    "cityCode": "BQW",
    "countryCode": "61",
    "name": "Balgo Hill Airport",
    "latitude": -20.1483,
    "longitude": 127.973,
    "city": null,
    "country": "Australia",
    "type": "SMALL"
  },
  {
    "IATA": "BRK",
    "cityCode": "BRK",
    "countryCode": "61",
    "name": "Bourke Airport",
    "latitude": -30.0392,
    "longitude": 145.952,
    "city": "Bourke",
    "country": "Australia",
    "type": "MEDIUM"
  },
  {
    "IATA": "BRT",
    "cityCode": "BRT",
    "countryCode": "61",
    "name": "Bathurst Island Airport",
    "latitude": -11.7692,
    "longitude": 130.62,
    "city": null,
    "country": "Australia",
    "type": "MEDIUM"
  },
  {
    "IATA": "BRW",
    "cityCode": "BRW",
    "countryCode": "1",
    "name": "Wiley Post-Will Rogers Memorial Airport",
    "latitude": 71.2854,
    "longitude": -156.766,
    "city": "Barrow",
    "country": "United States",
    "type": "MEDIUM"
  },
  {
    "IATA": "BSD",
    "cityCode": "BSD",
    "countryCode": "86",
    "name": "Baoshan Yunduan Airport",
    "latitude": 25.0533,
    "longitude": 99.1683,
    "city": "Dianyang",
    "country": "China",
    "type": "MEDIUM"
  },
  {
    "IATA": "BSL",
    "cityCode": "EAP",
    "name": "EuroAirport Swiss",
    "latitude": 47.59961,
    "longitude": 7.532604,
    "city": "St-Ludwig",
    "country": "France",
    "type": "LARGE"
  },
  {
    "IATA": "BSW",
    "cityCode": "BSW",
    "countryCode": "1",
    "name": "Boswell Bay",
    "latitude": 60.4223364,
    "longitude": -146.1445823,
    "city": null,
    "country": "United States",
    "type": "SMALL"
  },
  {
    "IATA": "BTD",
    "cityCode": "BTD",
    "countryCode": "61",
    "name": "Brunette Downs",
    "latitude": -18.63357715,
    "longitude": 135.9409543,
    "city": null,
    "country": "Australia",
    "type": "SMALL"
  },
  {
    "IATA": "BTI",
    "cityCode": "BTI",
    "countryCode": "1",
    "name": "Barter Island LRRS Airport",
    "latitude": 70.134,
    "longitude": -143.582,
    "city": "Kaktovik",
    "country": "United States",
    "type": "MEDIUM"
  },
  {
    "IATA": "BTK",
    "cityCode": "BTK",
    "countryCode": "7",
    "name": "Bratsk Airport",
    "latitude": 56.3706,
    "longitude": 101.698,
    "city": "Bratsk",
    "country": "Russia",
    "type": "MEDIUM"
  },
  {
    "IATA": "BTT",
    "cityCode": "BTT",
    "countryCode": "1",
    "name": "Bettles Airport",
    "latitude": 66.9139,
    "longitude": -151.529,
    "city": "Bettles",
    "country": "United States",
    "type": "MEDIUM"
  },
  {
    "IATA": "BTX",
    "cityCode": "BTX",
    "countryCode": "61",
    "name": "Betoota Airport",
    "latitude": -25.6417,
    "longitude": 140.783,
    "city": null,
    "country": "Australia",
    "type": "SMALL"
  },
  {
    "IATA": "BTY",
    "cityCode": "BTY",
    "countryCode": "1",
    "name": "Beatty Airport",
    "latitude": 36.8611,
    "longitude": -116.787,
    "city": null,
    "country": "United States",
    "type": "SMALL"
  },
  {
    "IATA": "BTZ",
    "cityCode": null,
    "name": "Bursa Airport",
    "latitude": 40.2333,
    "longitude": 29.0092,
    "city": "Bursa",
    "country": "Thailand",
    "type": "MEDIUM"
  },
  {
    "IATA": "BTZ",
    "cityCode": "BTZ",
    "countryCode": "66",
    "name": "Yala Betong International Airport",
    "latitude": 5.785833,
    "longitude": 101.1475,
    "city": "Betong",
    "country": "Thailand",
    "type": "MEDIUM"
  },
  {
    "IATA": "BUC",
    "cityCode": "BUC",
    "countryCode": "61",
    "name": "Burketown Airport",
    "latitude": -17.7486,
    "longitude": 139.534,
    "city": "Burketown",
    "country": "Australia",
    "type": "SMALL"
  },
  {
    "IATA": "BVI",
    "cityCode": "BVI",
    "countryCode": "61",
    "name": "Birdsville Airport",
    "latitude": -25.8975,
    "longitude": 139.348,
    "city": "Birdsville",
    "country": "Australia",
    "type": "MEDIUM"
  },
  {
    "IATA": "BVJ",
    "cityCode": "BVJ",
    "countryCode": "7",
    "name": "Bovanenkovo Airport",
    "latitude": 70.3153,
    "longitude": 68.3336,
    "city": "Aksarka",
    "country": "Russia",
    "type": "MEDIUM"
  },
  {
    "IATA": "BVU",
    "cityCode": "BVU",
    "countryCode": "1",
    "name": "Beluga Airport",
    "latitude": 61.1722,
    "longitude": -151.044,
    "city": null,
    "country": "United States",
    "type": "SMALL"
  },
  {
    "IATA": "BVV",
    "cityCode": "BVV",
    "countryCode": "7",
    "name": "Burevestnik Airport",
    "latitude": 44.92,
    "longitude": 147.622,
    "city": null,
    "country": "Russia",
    "type": "SMALL"
  },
  {
    "IATA": "BVW",
    "cityCode": "BVW",
    "countryCode": "61",
    "name": "Batavia Downs",
    "latitude": -12.65,
    "longitude": 143.21666,
    "city": null,
    "country": "Australia",
    "type": "SMALL"
  },
  {
    "IATA": "BWB",
    "cityCode": "BWB",
    "countryCode": "61",
    "name": "Barrow Island Airport",
    "latitude": -20.8644,
    "longitude": 115.406,
    "city": null,
    "country": "Australia",
    "type": "SMALL"
  },
  {
    "IATA": "BWL",
    "cityCode": null,
    "countryCode": "1",
    "name": "Blackwell-Tonkawa Municipal Airport",
    "latitude": 36.7959,
    "longitude": -97.317,
    "city": null,
    "country": "United States",
    "type": "SMALL"
  },
  {
    "IATA": "BWM",
    "cityCode": null,
    "countryCode": "1",
    "name": "Bowman Municipal Airport",
    "latitude": 46.1655,
    "longitude": -103.301,
    "city": null,
    "country": "United States",
    "type": "SMALL"
  },
  {
    "IATA": "BWO",
    "cityCode": "BWO",
    "countryCode": "7",
    "name": "Balakovo Airport",
    "latitude": 51.8583,
    "longitude": 47.7456,
    "city": "Balakovo",
    "country": "Russia",
    "type": "MEDIUM"
  },
  {
    "IATA": "BYA",
    "cityCode": "BYA",
    "countryCode": "1",
    "name": "Boundary",
    "latitude": 64.0780556,
    "longitude": -141.1133333,
    "city": null,
    "country": "United States",
    "type": "SMALL"
  },
  {
    "IATA": "BYH",
    "cityCode": "BYH",
    "countryCode": "1",
    "name": "Arkansas International Airport",
    "latitude": 35.9643,
    "longitude": -89.944,
    "city": null,
    "country": "United States",
    "type": "MEDIUM"
  },
  {
    "IATA": "BYP",
    "cityCode": "BYP",
    "countryCode": "61",
    "name": "Barimunya Airport",
    "latitude": -22.6739,
    "longitude": 119.166,
    "city": null,
    "country": "Australia",
    "type": "SMALL"
  },
  {
    "IATA": "BYW",
    "cityCode": "BYW",
    "countryCode": "1",
    "name": "Blakely Island",
    "latitude": 48.5,
    "longitude": -123,
    "city": null,
    "country": "United States",
    "type": "SMALL"
  },
  {
    "IATA": "BZD",
    "cityCode": "BZD",
    "countryCode": "61",
    "name": "Balranald Airport",
    "latitude": -34.6236,
    "longitude": 143.578,
    "city": null,
    "country": "Australia",
    "type": "MEDIUM"
  },
  {
    "IATA": "BZP",
    "cityCode": "BZP",
    "countryCode": "61",
    "name": "Bizant",
    "latitude": -15.216667,
    "longitude": 144.63333,
    "city": null,
    "country": "Australia",
    "type": "SMALL"
  },
  {
    "IATA": "BZX",
    "cityCode": "BZX",
    "countryCode": "86",
    "name": "Bazhong Enyang Airport",
    "latitude": 31.7383789,
    "longitude": 106.6455156,
    "city": "Bazhou",
    "country": "China",
    "type": "SMALL"
  },
  {
    "IATA": "CAE",
    "cityCode": "CAE",
    "countryCode": "1",
    "name": "Columbia Metropolitan Airport",
    "latitude": 33.9388,
    "longitude": -81.1195,
    "city": "West Columbia",
    "country": "United States",
    "type": "MEDIUM"
  },
  {
    "IATA": "CAH",
    "cityCode": "CAH",
    "countryCode": "84",
    "name": "Ca Mau Airport",
    "latitude": 9.17767,
    "longitude": 105.178,
    "city": "Ca Mau",
    "country": "Vietnam",
    "type": "MEDIUM"
  },
  {
    "IATA": "CAN",
    "cityCode": "CAN",
    "countryCode": "86",
    "name": "Guangzhou Baiyun International Airport",
    "latitude": 23.3924,
    "longitude": 113.299,
    "city": "Guangzhou",
    "country": "China",
    "type": "LARGE"
  },
  {
    "IATA": "CBI",
    "cityCode": "CBI",
    "countryCode": "61",
    "name": "Cape Barren Island",
    "latitude": -40.333332,
    "longitude": 148.16667,
    "city": null,
    "country": "Australia",
    "type": "SMALL"
  },
  {
    "IATA": "CBM",
    "cityCode": "UBS",
    "countryCode": "1",
    "name": "Columbus Air Force Base",
    "latitude": 33.6438,
    "longitude": -88.4438,
    "city": null,
    "country": "United States",
    "type": "MEDIUM"
  },
  {
    "IATA": "CBR",
    "cityCode": "CBR",
    "countryCode": "61",
    "name": "Canberra Airport",
    "latitude": -35.3069,
    "longitude": 149.195,
    "city": "Forrest",
    "country": "Australia",
    "type": "MEDIUM"
  },
  {
    "IATA": "CBX",
    "cityCode": "CBX",
    "countryCode": "61",
    "name": "Condobolin Airport",
    "latitude": -33.0644,
    "longitude": 147.209,
    "city": null,
    "country": "Australia",
    "type": "SMALL"
  },
  {
    "IATA": "CBY",
    "cityCode": "CBY",
    "countryCode": "61",
    "name": "Canobie",
    "latitude": -19.4788726,
    "longitude": 140.9273389,
    "city": null,
    "country": "Australia",
    "type": "SMALL"
  },
  {
    "IATA": "CCL",
    "cityCode": "CCL",
    "countryCode": "61",
    "name": "Chinchilla Airport",
    "latitude": -26.775,
    "longitude": 150.617,
    "city": null,
    "country": "Australia",
    "type": "MEDIUM"
  },
  {
    "IATA": "CCW",
    "cityCode": "CCW",
    "countryCode": "61",
    "name": "Cowell Airport",
    "latitude": -33.6667,
    "longitude": 136.892,
    "city": null,
    "country": "Australia",
    "type": "SMALL"
  },
  {
    "IATA": "CDA",
    "cityCode": "CDA",
    "countryCode": "61",
    "name": "Cooinda Airport",
    "latitude": -12.9033,
    "longitude": 132.532,
    "city": null,
    "country": "Australia",
    "type": "SMALL"
  },
  {
    "IATA": "CDB",
    "cityCode": "CDB",
    "countryCode": "1",
    "name": "Cold Bay Airport",
    "latitude": 55.2061,
    "longitude": -162.725,
    "city": "Cold Bay",
    "country": "United States",
    "type": "MEDIUM"
  },
  {
    "IATA": "CDE",
    "cityCode": "CDE",
    "countryCode": "86",
    "name": "Chengde Puning Airport",
    "latitude": 41.1225,
    "longitude": 118.074,
    "city": "Corozal",
    "country": "China",
    "type": "MEDIUM"
  },
  {
    "IATA": "CDG",
    "cityCode": "PAR",
    "countryCode": "33",
    "name": "Paris Charles de Gaulle Airport",
    "latitude": 49.0097,
    "longitude": 2.54778,
    "city": "Le Mesnil-Amelot",
    "country": "France",
    "type": "LARGE"
  },
  {
    "IATA": "CDL",
    "cityCode": "CDL",
    "countryCode": "1",
    "name": "Candle",
    "latitude": 65.9092649,
    "longitude": -161.9379772,
    "city": null,
    "country": "United States",
    "type": "SMALL"
  },
  {
    "IATA": "CDQ",
    "cityCode": "CDQ",
    "countryCode": "61",
    "name": "Croydon Airport",
    "latitude": -18.225,
    "longitude": 142.258,
    "city": null,
    "country": "Australia",
    "type": "SMALL"
  },
  {
    "IATA": "CDU",
    "cityCode": "CDU",
    "countryCode": "61",
    "name": "Camden Airport",
    "latitude": -34.0403,
    "longitude": 150.687,
    "city": null,
    "country": "Australia",
    "type": "MEDIUM"
  },
  {
    "IATA": "CDV",
    "cityCode": "CDV",
    "countryCode": "1",
    "name": "Merle K. (Mudhole) Smith Airport",
    "latitude": 60.4918,
    "longitude": -145.478,
    "city": "Cordova",
    "country": "United States",
    "type": "MEDIUM"
  },
  {
    "IATA": "CEA",
    "cityCode": "ICT",
    "countryCode": "1",
    "name": "Cessna Aircraft Field",
    "latitude": 37.6486,
    "longitude": -97.2506,
    "city": null,
    "country": "United States",
    "type": "SMALL"
  },
  {
    "IATA": "CED",
    "cityCode": "CED",
    "countryCode": "61",
    "name": "Ceduna Airport",
    "latitude": -32.1306,
    "longitude": 133.71,
    "city": "Ceduna",
    "country": "Australia",
    "type": "MEDIUM"
  },
  {
    "IATA": "CEE",
    "cityCode": "CEE",
    "countryCode": "7",
    "name": "Cherepovets Airport",
    "latitude": 59.2736,
    "longitude": 38.0158,
    "city": "Tonshalovo",
    "country": "Russia",
    "type": "MEDIUM"
  },
  {
    "IATA": "CEI",
    "cityCode": "CEI",
    "countryCode": "66",
    "name": "Chiang Rai International Airport (Mae Fah Luang Int'l)",
    "latitude": 19.9523,
    "longitude": 99.8829,
    "city": "Chiang Rai",
    "country": "Thailand",
    "type": "MEDIUM"
  },
  {
    "IATA": "CEK",
    "cityCode": "CEK",
    "countryCode": "7",
    "name": "Chelyabinsk Airport",
    "latitude": 55.3058,
    "longitude": 61.5033,
    "city": "Potanino",
    "country": "Russia",
    "type": "MEDIUM"
  },
  {
    "IATA": "CEM",
    "cityCode": "CEM",
    "countryCode": "1",
    "name": "Central",
    "latitude": 65.5736598,
    "longitude": -144.777902,
    "city": "Circle",
    "country": "United States",
    "type": "SMALL"
  },
  {
    "IATA": "CEM",
    "cityCode": null,
    "countryCode": "1",
    "name": "Central Airport",
    "latitude": 65.5738,
    "longitude": -144.783,
    "city": "Circle",
    "country": "United States",
    "type": "SMALL"
  },
  {
    "IATA": "CEX",
    "cityCode": "CEX",
    "countryCode": "1",
    "name": "Chena Hot Springs",
    "latitude": 65.05,
    "longitude": -146.16667,
    "city": null,
    "country": "United States",
    "type": "SMALL"
  },
  {
    "IATA": "CFH",
    "cityCode": "CFH",
    "countryCode": "61",
    "name": "Clifton Hills",
    "latitude": -27,
    "longitude": 139,
    "city": null,
    "country": "Australia",
    "type": "SMALL"
  },
  {
    "IATA": "CFI",
    "cityCode": "CFI",
    "countryCode": "61",
    "name": "Camfield Airport",
    "latitude": -17.0217,
    "longitude": 131.327,
    "city": null,
    "country": "Australia",
    "type": "SMALL"
  },
  {
    "IATA": "CFP",
    "cityCode": "CFP",
    "countryCode": "61",
    "name": "Carpentaria Downs",
    "latitude": -18.783333,
    "longitude": 144.35,
    "city": null,
    "country": "Australia",
    "type": "SMALL"
  },
  {
    "IATA": "CGD",
    "cityCode": "CGD",
    "countryCode": "86",
    "name": "Changde Taohuayuan Airport",
    "latitude": 28.9189,
    "longitude": 111.64,
    "city": "Doumuhu",
    "country": "China",
    "type": "MEDIUM"
  },
  {
    "IATA": "CGO",
    "cityCode": "CGO",
    "countryCode": "86",
    "name": "Zhengzhou Xinzheng International Airport",
    "latitude": 34.5197,
    "longitude": 113.841,
    "city": "Zhengzhou",
    "country": "China",
    "type": "LARGE"
  },
  {
    "IATA": "CGS",
    "cityCode": "CGS",
    "countryCode": "1",
    "name": "College Park Airport",
    "latitude": 38.9806,
    "longitude": -76.9223,
    "city": null,
    "country": "United States",
    "type": "SMALL"
  },
  {
    "IATA": "CHG",
    "cityCode": "CHG",
    "countryCode": "86",
    "name": "Chaoyang Airport",
    "latitude": 41.5381,
    "longitude": 120.435,
    "city": "Chaoyang",
    "country": "China",
    "type": "MEDIUM"
  },
  {
    "IATA": "CHP",
    "cityCode": "CHP",
    "countryCode": "1",
    "name": "Circle Hot Springs",
    "latitude": 65.48552135,
    "longitude": -144.6184009,
    "city": null,
    "country": "United States",
    "type": "SMALL"
  },
  {
    "IATA": "CHU",
    "cityCode": null,
    "countryCode": "1",
    "name": "Chuathbaluk Airport",
    "latitude": 61.5791,
    "longitude": -159.216,
    "city": "Chuathbaluk",
    "country": "United States",
    "type": "SMALL"
  },
  {
    "IATA": "CHU",
    "cityCode": "CHU",
    "countryCode": "1",
    "name": "Chuathbaluk Airport",
    "latitude": 61.5791016,
    "longitude": -159.2160034,
    "city": "Chuathbaluk",
    "country": "United States",
    "type": "SMALL"
  },
  {
    "IATA": "CIF",
    "cityCode": "CIF",
    "countryCode": "86",
    "name": "Chifeng Yulong Airport",
    "latitude": 42.235,
    "longitude": 118.908,
    "city": "Chifeng",
    "country": "China",
    "type": "MEDIUM"
  },
  {
    "IATA": "CIH",
    "cityCode": "CIH",
    "countryCode": "86",
    "name": "Changzhi Wangcun Airport",
    "latitude": 36.2475,
    "longitude": 113.126,
    "city": "Daxinzhuang",
    "country": "China",
    "type": "SMALL"
  },
  {
    "IATA": "CIK",
    "cityCode": "CIK",
    "countryCode": "1",
    "name": "Chalkyitsik Airport",
    "latitude": 66.645,
    "longitude": -143.74,
    "city": "Chalkyitsik",
    "country": "United States",
    "type": "SMALL"
  },
  {
    "IATA": "CIL",
    "cityCode": "CIL",
    "countryCode": "1",
    "name": "Melsing Creek",
    "latitude": 64.90833,
    "longitude": -163.73334,
    "city": null,
    "country": "United States",
    "type": "SMALL"
  },
  {
    "IATA": "CIU",
    "cityCode": "SSM",
    "countryCode": "1",
    "name": "Chippewa County International Airport",
    "latitude": 46.2508,
    "longitude": -84.4724,
    "city": "Kincheloe",
    "country": "United States",
    "type": "MEDIUM"
  },
  {
    "IATA": "CJF",
    "cityCode": "CJF",
    "countryCode": "61",
    "name": "Coondewanna Airport",
    "latitude": -22.9667,
    "longitude": 118.813,
    "city": null,
    "country": "Australia",
    "type": "SMALL"
  },
  {
    "IATA": "CJM",
    "cityCode": "CJM",
    "countryCode": "66",
    "name": "Chumphon Airport",
    "latitude": 10.7112,
    "longitude": 99.3617,
    "city": "Pathio",
    "country": "Thailand",
    "type": "MEDIUM"
  },
  {
    "IATA": "CKD",
    "cityCode": "CKD",
    "countryCode": "1",
    "name": "Crooked Creek",
    "latitude": 61.8670574,
    "longitude": -158.1319634,
    "city": "Aniak",
    "country": "United States",
    "type": "SMALL"
  },
  {
    "IATA": "CKG",
    "cityCode": "CKG",
    "countryCode": "86",
    "name": "Chongqing Jiangbei International Airport",
    "latitude": 29.7192,
    "longitude": 106.642,
    "city": "Shuangfengqiao",
    "country": "China",
    "type": "LARGE"
  },
  {
    "IATA": "CKH",
    "cityCode": "CKH",
    "countryCode": "7",
    "name": "Chokurdakh Airport",
    "latitude": 70.6231,
    "longitude": 147.902,
    "city": "Chokurdakh",
    "country": "Russia",
    "type": "MEDIUM"
  },
  {
    "IATA": "CKI",
    "cityCode": "CKI",
    "countryCode": "61",
    "name": "Croker Island Airport",
    "latitude": -11.165,
    "longitude": 132.483,
    "city": null,
    "country": "Australia",
    "type": "SMALL"
  },
  {
    "IATA": "CKL",
    "cityCode": "CKL",
    "countryCode": "7",
    "name": "Chkalovsky Airport",
    "latitude": 55.8783,
    "longitude": 38.0617,
    "city": "Bakhchivandzhi",
    "country": "Russia",
    "type": "MEDIUM"
  },
  {
    "IATA": "CKU",
    "cityCode": "CDV",
    "countryCode": "1",
    "name": "City",
    "latitude": 60.55,
    "longitude": -145.75,
    "city": null,
    "country": "United States",
    "type": "SMALL"
  },
  {
    "IATA": "CKW",
    "cityCode": "CKW",
    "countryCode": "61",
    "name": "Graeme Rowley Aerodrome",
    "latitude": -22.3543,
    "longitude": 119.643,
    "city": "Wilkie",
    "country": "Australia",
    "type": "SMALL"
  },
  {
    "IATA": "CKX",
    "cityCode": "CKX",
    "countryCode": "1",
    "name": "Chicken",
    "latitude": 64.06816475,
    "longitude": -141.9528389,
    "city": "Tok",
    "country": "United States",
    "type": "SMALL"
  },
  {
    "IATA": "CLP",
    "cityCode": "CLP",
    "countryCode": "1",
    "name": "Clarks Point Airport",
    "latitude": 58.8337,
    "longitude": -158.529,
    "city": "Clarks Point",
    "country": "United States",
    "type": "SMALL"
  },
  {
    "IATA": "CLT",
    "cityCode": "CLT",
    "countryCode": "1",
    "name": "Charlotte Douglas International Airport",
    "latitude": 35.214,
    "longitude": -80.9431,
    "city": "Charlotte",
    "country": "United States",
    "type": "LARGE"
  },
  {
    "IATA": "CMA",
    "cityCode": "CMA",
    "countryCode": "61",
    "name": "Cunnamulla Airport",
    "latitude": -28.03,
    "longitude": 145.622,
    "city": "Cunnamulla",
    "country": "Australia",
    "type": "MEDIUM"
  },
  {
    "IATA": "CML",
    "cityCode": "CML",
    "countryCode": "61",
    "name": "Camooweal Airport",
    "latitude": -19.9117,
    "longitude": 138.125,
    "city": null,
    "country": "Australia",
    "type": "SMALL"
  },
  {
    "IATA": "CMQ",
    "cityCode": "CMQ",
    "countryCode": "61",
    "name": "Clermont Airport",
    "latitude": -22.7731,
    "longitude": 147.621,
    "city": null,
    "country": "Australia",
    "type": "MEDIUM"
  },
  {
    "IATA": "CNC",
    "cityCode": "CNC",
    "countryCode": "61",
    "name": "Coconut Island Airport",
    "latitude": -10.05,
    "longitude": 143.07,
    "city": "Coconut Island",
    "country": "Australia",
    "type": "SMALL"
  },
  {
    "IATA": "CNI",
    "cityCode": "CNI",
    "countryCode": "86",
    "name": "Changhai Airport",
    "latitude": 39.2667,
    "longitude": 122.667,
    "city": "Changning",
    "country": "China",
    "type": "MEDIUM"
  },
  {
    "IATA": "CNJ",
    "cityCode": "CNJ",
    "countryCode": "61",
    "name": "Cloncurry Airport",
    "latitude": -20.6686,
    "longitude": 140.504,
    "city": "Cloncurry",
    "country": "Australia",
    "type": "MEDIUM"
  },
  {
    "IATA": "CNX",
    "cityCode": "CNX",
    "countryCode": "66",
    "name": "Chiang Mai International Airport",
    "latitude": 18.7668,
    "longitude": 98.9626,
    "city": "Chiang Mai",
    "country": "Thailand",
    "type": "LARGE"
  },
  {
    "IATA": "COY",
    "cityCode": "COY",
    "countryCode": "61",
    "name": "Coolawanyah Station Airport",
    "latitude": -21.7946,
    "longitude": 117.755,
    "city": null,
    "country": "Australia",
    "type": "SMALL"
  },
  {
    "IATA": "CPD",
    "cityCode": "CPD",
    "countryCode": "61",
    "name": "Coober Pedy Airport",
    "latitude": -29.04,
    "longitude": 134.721,
    "city": "Coober Pedy",
    "country": "Australia",
    "type": "MEDIUM"
  },
  {
    "IATA": "CQW",
    "cityCode": null,
    "countryCode": "86",
    "name": "Chongqing Xiannyushan Airport",
    "latitude": 29.4658,
    "longitude": 107.692,
    "city": null,
    "country": "China",
    "type": "MEDIUM"
  },
  {
    "IATA": "CRB",
    "cityCode": "CRB",
    "countryCode": "61",
    "name": "Collarenebri Airport",
    "latitude": -29.5217,
    "longitude": 148.582,
    "city": null,
    "country": "Australia",
    "type": "SMALL"
  },
  {
    "IATA": "CRG",
    "cityCode": "JAX",
    "countryCode": "1",
    "name": "Jacksonville Executive at Craig Airport",
    "latitude": 30.3363,
    "longitude": -81.5144,
    "city": null,
    "country": "United States",
    "type": "MEDIUM"
  },
  {
    "IATA": "CRH",
    "cityCode": "CRH",
    "countryCode": "61",
    "name": "Cherribah",
    "latitude": -28,
    "longitude": 152.16667,
    "city": null,
    "country": "Australia",
    "type": "SMALL"
  },
  {
    "IATA": "CRO",
    "cityCode": null,
    "countryCode": "1",
    "name": "Corcoran Airport",
    "latitude": 36.1025,
    "longitude": -119.595,
    "city": null,
    "country": "United States",
    "type": "SMALL"
  },
  {
    "IATA": "CRP",
    "cityCode": "CRP",
    "countryCode": "1",
    "name": "Corpus Christi International Airport",
    "latitude": 27.7704,
    "longitude": -97.5012,
    "city": "Corpus Christi",
    "country": "United States",
    "type": "MEDIUM"
  },
  {
    "IATA": "CSG",
    "cityCode": "CSG",
    "countryCode": "1",
    "name": "Columbus Airport",
    "latitude": 32.5163,
    "longitude": -84.9389,
    "city": "Columbus",
    "country": "United States",
    "type": "MEDIUM"
  },
  {
    "IATA": "CSH",
    "cityCode": "CSH",
    "countryCode": "7",
    "name": "Solovki Airport",
    "latitude": 65.03,
    "longitude": 35.7333,
    "city": "Rabocheostrovsk",
    "country": "Russia",
    "type": "SMALL"
  },
  {
    "IATA": "CSX",
    "cityCode": "CSX",
    "countryCode": "86",
    "name": "Changsha Huanghua International Airport",
    "latitude": 28.1892,
    "longitude": 113.22,
    "city": "Changsha",
    "country": "China",
    "type": "LARGE"
  },
  {
    "IATA": "CTL",
    "cityCode": "CTL",
    "countryCode": "61",
    "name": "Charleville Airport",
    "latitude": -26.4133,
    "longitude": 146.262,
    "city": "Charleville",
    "country": "Australia",
    "type": "MEDIUM"
  },
  {
    "IATA": "CTN",
    "cityCode": "CTN",
    "countryCode": "61",
    "name": "Cooktown Airport",
    "latitude": -15.4447,
    "longitude": 145.184,
    "city": null,
    "country": "Australia",
    "type": "MEDIUM"
  },
  {
    "IATA": "CTR",
    "cityCode": "CTR",
    "countryCode": "61",
    "name": "Cattle Creek",
    "latitude": -17.583332,
    "longitude": 131,
    "city": null,
    "country": "Australia",
    "type": "SMALL"
  },
  {
    "IATA": "CTS",
    "cityCode": "SPK",
    "countryCode": "81",
    "name": "New Chitose Airport",
    "latitude": 42.786787,
    "longitude": 141.6829598,
    "city": "Chitose",
    "country": "Japan",
    "type": "LARGE"
  },
  {
    "IATA": "CTU",
    "cityCode": "CTU",
    "countryCode": "86",
    "name": "Chengdu Shuangliu International Airport",
    "latitude": 30.5785,
    "longitude": 103.947,
    "city": "Dongsheng",
    "country": "China",
    "type": "LARGE"
  },
  {
    "IATA": "CUB",
    "cityCode": "CAE",
    "countryCode": "1",
    "name": "Jim Hamilton-L.B. Owens Airport",
    "latitude": 33.9705,
    "longitude": -80.9952,
    "city": null,
    "country": "United States",
    "type": "MEDIUM"
  },
  {
    "IATA": "CUG",
    "cityCode": "CUG",
    "countryCode": "61",
    "name": "Cudal Airport",
    "latitude": -33.2783,
    "longitude": 148.763,
    "city": null,
    "country": "Australia",
    "type": "SMALL"
  },
  {
    "IATA": "CUQ",
    "cityCode": "CUQ",
    "countryCode": "61",
    "name": "Coen Airport",
    "latitude": -13.7611,
    "longitude": 143.113,
    "city": null,
    "country": "Australia",
    "type": "MEDIUM"
  },
  {
    "IATA": "CUY",
    "cityCode": "CUY",
    "countryCode": "61",
    "name": "Cue Airport",
    "latitude": -27.4467,
    "longitude": 117.918,
    "city": null,
    "country": "Australia",
    "type": "SMALL"
  },
  {
    "IATA": "CVQ",
    "cityCode": "CVQ",
    "countryCode": "61",
    "name": "Carnarvon Airport",
    "latitude": -24.8802,
    "longitude": 113.672,
    "city": "Carnarvon",
    "country": "Australia",
    "type": "MEDIUM"
  },
  {
    "IATA": "CWJ",
    "cityCode": "CWJ",
    "countryCode": "86",
    "name": "Cangyuan Washan Airport",
    "latitude": 23.2739,
    "longitude": 99.3736,
    "city": "Mengdong",
    "country": "China",
    "type": "MEDIUM"
  },
  {
    "IATA": "CWR",
    "cityCode": "CWR",
    "countryCode": "61",
    "name": "Cowarie Airport",
    "latitude": -27.7117,
    "longitude": 138.328,
    "city": null,
    "country": "Australia",
    "type": "SMALL"
  },
  {
    "IATA": "CWS",
    "cityCode": "CWS",
    "countryCode": "1",
    "name": "Center Island",
    "latitude": 47.485,
    "longitude": -122.83139,
    "city": null,
    "country": "United States",
    "type": "SMALL"
  },
  {
    "IATA": "CXC",
    "cityCode": "CXC",
    "countryCode": "1",
    "name": "Chitina Airport",
    "latitude": 61.5833487,
    "longitude": -144.4322008,
    "city": null,
    "country": "United States",
    "type": "SMALL"
  },
  {
    "IATA": "CXF",
    "cityCode": "CXF",
    "countryCode": "1",
    "name": "Coldfoot Airport",
    "latitude": 67.2522,
    "longitude": -150.204,
    "city": null,
    "country": "United States",
    "type": "SMALL"
  },
  {
    "IATA": "CXR",
    "cityCode": "NHA",
    "countryCode": "84",
    "name": "Cam Ranh International Airport",
    "latitude": 11.9982,
    "longitude": 109.219,
    "city": "Cam Lam",
    "country": "Vietnam",
    "type": "MEDIUM"
  },
  {
    "IATA": "CXT",
    "cityCode": "CXT",
    "countryCode": "61",
    "name": "Charters Towers Airport",
    "latitude": -20.0431,
    "longitude": 146.273,
    "city": null,
    "country": "Australia",
    "type": "SMALL"
  },
  {
    "IATA": "CYF",
    "cityCode": "CYF",
    "countryCode": "1",
    "name": "Chefornak Airport",
    "latitude": 60.1492,
    "longitude": -164.286,
    "city": "Chefornak",
    "country": "United States",
    "type": "SMALL"
  },
  {
    "IATA": "CYG",
    "cityCode": "CYG",
    "countryCode": "61",
    "name": "Corryong Airport",
    "latitude": -36.1828,
    "longitude": 147.888,
    "city": null,
    "country": "Australia",
    "type": "MEDIUM"
  },
  {
    "IATA": "CYS",
    "cityCode": "CYS",
    "countryCode": "1",
    "name": "Cheyenne Regional Airport (Jerry Olson Field)",
    "latitude": 41.1557,
    "longitude": -104.812,
    "city": "Cheyenne",
    "country": "United States",
    "type": "MEDIUM"
  },
  {
    "IATA": "CYT",
    "cityCode": "CYT",
    "countryCode": "1",
    "name": "Yakataga Airport",
    "latitude": 60.081,
    "longitude": -142.495,
    "city": null,
    "country": "United States",
    "type": "SMALL"
  },
  {
    "IATA": "CYX",
    "cityCode": "CYX",
    "countryCode": "7",
    "name": "Chersky Airport",
    "latitude": 68.7406,
    "longitude": 161.338,
    "city": "Cherskiy",
    "country": "Russia",
    "type": "MEDIUM"
  },
  {
    "IATA": "CZC",
    "cityCode": "CZC",
    "countryCode": "1",
    "name": "Copper Centre",
    "latitude": 61.966667,
    "longitude": -145.3,
    "city": null,
    "country": "United States",
    "type": "SMALL"
  },
  {
    "IATA": "CZF",
    "cityCode": "CZF",
    "countryCode": "1",
    "name": "Cape Romanzof LRRS Airport",
    "latitude": 61.7803,
    "longitude": -166.039,
    "city": null,
    "country": "United States",
    "type": "MEDIUM"
  },
  {
    "IATA": "CZN",
    "cityCode": "CZN",
    "countryCode": "1",
    "name": "Chisana Field",
    "latitude": 62.07083,
    "longitude": -142.05,
    "city": "Gakona",
    "country": "United States",
    "type": "SMALL"
  },
  {
    "IATA": "CZO",
    "cityCode": "CZO",
    "countryCode": "1",
    "name": "Chistochina",
    "latitude": 62.5636319,
    "longitude": -144.669765,
    "city": null,
    "country": "United States",
    "type": "SMALL"
  },
  {
    "IATA": "CZX",
    "cityCode": "CZX",
    "countryCode": "86",
    "name": "Changzhou Benniu Airport",
    "latitude": 31.9197,
    "longitude": 119.779,
    "city": "Luoxi",
    "country": "China",
    "type": "MEDIUM"
  },
  {
    "IATA": "CZY",
    "cityCode": "CZY",
    "countryCode": "61",
    "name": "Cluny Airport",
    "latitude": -24.5167,
    "longitude": 139.617,
    "city": null,
    "country": "Australia",
    "type": "SMALL"
  },
  {
    "IATA": "DAD",
    "cityCode": "DAD",
    "countryCode": "84",
    "name": "Da Nang International Airport",
    "latitude": 16.0439,
    "longitude": 108.199,
    "city": "Thanh Khe",
    "country": "Vietnam",
    "type": "MEDIUM"
  },
  {
    "IATA": "DAT",
    "cityCode": "DAT",
    "countryCode": "86",
    "name": "Datong Yungang Airport",
    "latitude": 40.0603,
    "longitude": 113.482,
    "city": "Beijiazao",
    "country": "China",
    "type": "SMALL"
  },
  {
    "IATA": "DAX",
    "cityCode": "DAX",
    "countryCode": "86",
    "name": "Dazhou Heshi Airport",
    "latitude": 31.1302,
    "longitude": 107.429,
    "city": "Xiwai",
    "country": "China",
    "type": "SMALL"
  },
  {
    "IATA": "DBC",
    "cityCode": "DBC",
    "countryCode": "86",
    "name": "Baicheng Chang'an",
    "latitude": 45.5065501,
    "longitude": 123.0206999,
    "city": "Deshun",
    "country": "China",
    "type": "MEDIUM"
  },
  {
    "IATA": "DCA",
    "cityCode": "WAS",
    "countryCode": "1",
    "name": "Ronald Reagan Washington National Airport",
    "latitude": 38.8522,
    "longitude": -77.0378,
    "city": "Arlington",
    "country": "United States",
    "type": "LARGE"
  },
  {
    "IATA": "DCK",
    "cityCode": "DCK",
    "countryCode": "1",
    "name": "Dahl Creek Airport",
    "latitude": 66.9441134,
    "longitude": -156.9057329,
    "city": null,
    "country": "United States",
    "type": "SMALL"
  },
  {
    "IATA": "DCN",
    "cityCode": "DRB",
    "countryCode": "61",
    "name": "RAAF Base Curtin",
    "latitude": -17.5814,
    "longitude": 123.828,
    "city": null,
    "country": "Australia",
    "type": "MEDIUM"
  },
  {
    "IATA": "DCY",
    "cityCode": "DCY",
    "countryCode": "86",
    "name": "Daocheng Yading Airport",
    "latitude": 29.3231,
    "longitude": 100.053,
    "city": "Sangpi",
    "country": "China",
    "type": "MEDIUM"
  },
  {
    "IATA": "DDG",
    "cityCode": "DDG",
    "countryCode": "86",
    "name": "Dandong Langtou Airport",
    "latitude": 40.0247,
    "longitude": 124.286,
    "city": "Dandong",
    "country": "China",
    "type": "MEDIUM"
  },
  {
    "IATA": "DDN",
    "cityCode": "DDN",
    "countryCode": "61",
    "name": "Delta Downs Airport",
    "latitude": -16.9917,
    "longitude": 141.317,
    "city": null,
    "country": "Australia",
    "type": "SMALL"
  },
  {
    "IATA": "DGD",
    "cityCode": "DGD",
    "countryCode": "61",
    "name": "Dalgaranga Airport",
    "latitude": -27.8303,
    "longitude": 117.316,
    "city": null,
    "country": "Australia",
    "type": "SMALL"
  },
  {
    "IATA": "DGL",
    "cityCode": "DUG",
    "countryCode": "1",
    "name": "Douglas Municipal Airport",
    "latitude": 31.3426,
    "longitude": -109.506,
    "city": null,
    "country": "United States",
    "type": "SMALL"
  },
  {
    "IATA": "DHD",
    "cityCode": "DHD",
    "countryCode": "61",
    "name": "Durham Downs Airport",
    "latitude": -27.075,
    "longitude": 141.9,
    "city": null,
    "country": "Australia",
    "type": "SMALL"
  },
  {
    "IATA": "DIN",
    "cityCode": "DIN",
    "countryCode": "84",
    "name": "Dien Bien Phu Airport",
    "latitude": 21.3975,
    "longitude": 103.008,
    "city": "Dien Bien Phu",
    "country": "Vietnam",
    "type": "MEDIUM"
  },
  {
    "IATA": "DJN",
    "cityCode": "DJN",
    "countryCode": "1",
    "name": "Delta Junction",
    "latitude": 64.0488787,
    "longitude": -145.7171901,
    "city": null,
    "country": "United States",
    "type": "SMALL"
  },
  {
    "IATA": "DKI",
    "cityCode": "DKI",
    "countryCode": "61",
    "name": "Dunk Island Airport",
    "latitude": -17.9417,
    "longitude": 146.14,
    "city": null,
    "country": "Australia",
    "type": "SMALL"
  },
  {
    "IATA": "DKS",
    "cityCode": "DKS",
    "countryCode": "7",
    "name": "Dikson Airport",
    "latitude": 73.5178,
    "longitude": 80.3797,
    "city": "Dikson",
    "country": "Russia",
    "type": "MEDIUM"
  },
  {
    "IATA": "DKV",
    "cityCode": "DKV",
    "countryCode": "61",
    "name": "Docker River Airport",
    "latitude": -24.86,
    "longitude": 129.07,
    "city": null,
    "country": "Australia",
    "type": "SMALL"
  },
  {
    "IATA": "DLG",
    "cityCode": "DLG",
    "countryCode": "1",
    "name": "Dillingham Airport",
    "latitude": 59.0447,
    "longitude": -158.505,
    "city": "Dillingham",
    "country": "United States",
    "type": "MEDIUM"
  },
  {
    "IATA": "DLI",
    "cityCode": "DLI",
    "countryCode": "84",
    "name": "Lien Khuong Airport",
    "latitude": 11.75,
    "longitude": 108.367,
    "city": "Duc Trong",
    "country": "Vietnam",
    "type": "MEDIUM"
  },
  {
    "IATA": "DLK",
    "cityCode": "DLK",
    "countryCode": "61",
    "name": "Dulkaninna Airport",
    "latitude": -29.0133,
    "longitude": 138.481,
    "city": null,
    "country": "Australia",
    "type": "SMALL"
  },
  {
    "IATA": "DLU",
    "cityCode": "DLU",
    "countryCode": "86",
    "name": "Dali Airport",
    "latitude": 25.6494,
    "longitude": 100.319,
    "city": "Dali",
    "country": "China",
    "type": "MEDIUM"
  },
  {
    "IATA": "DMD",
    "cityCode": "DMD",
    "countryCode": "61",
    "name": "Doomadgee Airport",
    "latitude": -17.9403,
    "longitude": 138.822,
    "city": "Doomadgee",
    "country": "Australia",
    "type": "SMALL"
  },
  {
    "IATA": "DME",
    "cityCode": "MOW",
    "countryCode": "7",
    "name": "Moscow Domodedovo Airport",
    "latitude": 55.40912105,
    "longitude": 37.90416621,
    "city": "Yakovlevskoye",
    "country": "Russia",
    "type": "LARGE"
  },
  {
    "IATA": "DMK",
    "cityCode": "BKK",
    "countryCode": "66",
    "name": "Don Mueang International Airport",
    "latitude": 13.9126,
    "longitude": 100.607,
    "city": "Don Mueang",
    "country": "Thailand",
    "type": "LARGE"
  },
  {
    "IATA": "DNA",
    "cityCode": "OKA",
    "countryCode": "81",
    "name": "Kadena Air Base",
    "latitude": 26.3556,
    "longitude": 127.768,
    "city": "Okinawa",
    "country": "Japan",
    "type": "LARGE"
  },
  {
    "IATA": "DNG",
    "cityCode": "DNG",
    "countryCode": "61",
    "name": "Doongan",
    "latitude": -15.3894937,
    "longitude": 126.2993393,
    "city": null,
    "country": "Australia",
    "type": "SMALL"
  },
  {
    "IATA": "DNH",
    "cityCode": "DNH",
    "countryCode": "86",
    "name": "Dunhuang Airport",
    "latitude": 40.1611,
    "longitude": 94.8092,
    "city": "Dunhuang",
    "country": "China",
    "type": "MEDIUM"
  },
  {
    "IATA": "DNN",
    "cityCode": "DNN",
    "countryCode": "1",
    "name": "Dalton Municipal Airport",
    "latitude": 34.7229,
    "longitude": -84.8702,
    "city": null,
    "country": "United States",
    "type": "SMALL"
  },
  {
    "IATA": "DOX",
    "cityCode": "DOX",
    "countryCode": "61",
    "name": "Dongara Airport",
    "latitude": -29.2981,
    "longitude": 114.927,
    "city": null,
    "country": "Australia",
    "type": "SMALL"
  },
  {
    "IATA": "DOY",
    "cityCode": "DOY",
    "countryCode": "86",
    "name": "Dongying Shengli Airport",
    "latitude": 37.5086,
    "longitude": 118.788,
    "city": "Shengli",
    "country": "China",
    "type": "MEDIUM"
  },
  {
    "IATA": "DPO",
    "cityCode": "DPO",
    "countryCode": "61",
    "name": "Devonport Airport",
    "latitude": -41.1697,
    "longitude": 146.43,
    "city": "Devonport",
    "country": "Australia",
    "type": "MEDIUM"
  },
  {
    "IATA": "DQA",
    "cityCode": "DQA",
    "countryCode": "86",
    "name": "Daqing Sartu Airport",
    "latitude": 46.7464,
    "longitude": 125.141,
    "city": "Wolitun",
    "country": "China",
    "type": "SMALL"
  },
  {
    "IATA": "DRA",
    "cityCode": "DRA",
    "countryCode": "1",
    "name": "Desert Rock Airport",
    "latitude": 36.6194,
    "longitude": -116.033,
    "city": null,
    "country": "United States",
    "type": "MEDIUM"
  },
  {
    "IATA": "DRB",
    "cityCode": "DRB",
    "countryCode": "61",
    "name": "Derby Airport",
    "latitude": -17.37,
    "longitude": 123.661,
    "city": null,
    "country": "Australia",
    "type": "MEDIUM"
  },
  {
    "IATA": "DRD",
    "cityCode": "DRD",
    "countryCode": "61",
    "name": "Dorunda Airport",
    "latitude": -16.5537,
    "longitude": 141.824,
    "city": null,
    "country": "Australia",
    "type": "SMALL"
  },
  {
    "IATA": "DRE",
    "cityCode": "DRE",
    "countryCode": "1",
    "name": "Drummond Island Airport",
    "latitude": 46.0093,
    "longitude": -83.7439,
    "city": null,
    "country": "United States",
    "type": "SMALL"
  },
  {
    "IATA": "DRF",
    "cityCode": "DRF",
    "countryCode": "1",
    "name": "Drift River",
    "latitude": 60.5886111,
    "longitude": -152.1619444,
    "city": null,
    "country": "United States",
    "type": "SMALL"
  },
  {
    "IATA": "DRG",
    "cityCode": "DRG",
    "countryCode": "1",
    "name": "Deering Airport",
    "latitude": 66.0696,
    "longitude": -162.766,
    "city": "Deering",
    "country": "United States",
    "type": "MEDIUM"
  },
  {
    "IATA": "DRN",
    "cityCode": "DRN",
    "countryCode": "61",
    "name": "Dirranbandi Airport",
    "latitude": -28.5917,
    "longitude": 148.217,
    "city": null,
    "country": "Australia",
    "type": "MEDIUM"
  },
  {
    "IATA": "DRR",
    "cityCode": "DRR",
    "countryCode": "61",
    "name": "Durrie Airport",
    "latitude": -25.685,
    "longitude": 140.228,
    "city": null,
    "country": "Australia",
    "type": "SMALL"
  },
  {
    "IATA": "DRT",
    "cityCode": "DRT",
    "countryCode": "1",
    "name": "Del Rio International Airport",
    "latitude": 29.3742,
    "longitude": -100.927,
    "city": "Ciudad Acuna",
    "country": "United States",
    "type": "MEDIUM"
  },
  {
    "IATA": "DRY",
    "cityCode": "DRY",
    "countryCode": "61",
    "name": "Drysdale River Airport",
    "latitude": -15.7136,
    "longitude": 126.381,
    "city": null,
    "country": "Australia",
    "type": "SMALL"
  },
  {
    "IATA": "DSN",
    "cityCode": "DSN",
    "countryCode": "86",
    "name": "Ordos Ejin Horo Airport",
    "latitude": 39.49,
    "longitude": 109.861,
    "city": "Tianjiao",
    "country": "China",
    "type": "MEDIUM"
  },
  {
    "IATA": "DTN",
    "cityCode": "SHV",
    "countryCode": "1",
    "name": "Shreveport Downtown Airport",
    "latitude": 32.5402,
    "longitude": -93.745,
    "city": null,
    "country": "United States",
    "type": "SMALL"
  },
  {
    "IATA": "DTR",
    "cityCode": "DTR",
    "countryCode": "1",
    "name": "Decatur Island",
    "latitude": 48.5034859,
    "longitude": -122.813495,
    "city": null,
    "country": "United States",
    "type": "SMALL"
  },
  {
    "IATA": "DTU",
    "cityCode": "DTU",
    "countryCode": "86",
    "name": "Wudalianchi Dedu Airport",
    "latitude": 48.4429184,
    "longitude": 126.1378092,
    "city": "Baoquan",
    "country": "China",
    "type": "MEDIUM"
  },
  {
    "IATA": "DUT",
    "cityCode": "DUT",
    "countryCode": "1",
    "name": "Unalaska Airport",
    "latitude": 53.9001,
    "longitude": -166.544,
    "city": "Unalaska",
    "country": "United States",
    "type": "MEDIUM"
  },
  {
    "IATA": "DVP",
    "cityCode": "DVP",
    "countryCode": "61",
    "name": "Davenport Downs Airport",
    "latitude": -24.15,
    "longitude": 141.108,
    "city": null,
    "country": "Australia",
    "type": "SMALL"
  },
  {
    "IATA": "DWH",
    "cityCode": "HOU",
    "countryCode": "1",
    "name": "David Wayne Hooks Memorial Airport",
    "latitude": 30.0618,
    "longitude": -95.5528,
    "city": null,
    "country": "United States",
    "type": "SMALL"
  },
  {
    "IATA": "DYA",
    "cityCode": "DYA",
    "countryCode": "61",
    "name": "Dysart Airport",
    "latitude": -22.6222,
    "longitude": 148.364,
    "city": null,
    "country": "Australia",
    "type": "MEDIUM"
  },
  {
    "IATA": "DYG",
    "cityCode": "DYG",
    "countryCode": "86",
    "name": "Zhangjiajie Hehua Airport",
    "latitude": 29.1028,
    "longitude": 110.443,
    "city": "Dayong",
    "country": "China",
    "type": "SMALL"
  },
  {
    "IATA": "DYR",
    "cityCode": "DYR",
    "countryCode": "7",
    "name": "Ugolny Airport",
    "latitude": 64.7349,
    "longitude": 177.741,
    "city": "Anadyr",
    "country": "Russia",
    "type": "MEDIUM"
  },
  {
    "IATA": "DYW",
    "cityCode": "DYW",
    "countryCode": "61",
    "name": "Daly Waters",
    "latitude": -16.2631641,
    "longitude": 133.3775724,
    "city": null,
    "country": "Australia",
    "type": "SMALL"
  },
  {
    "IATA": "DZH",
    "cityCode": null,
    "countryCode": "86",
    "name": "Dazhou Jinya Airport",
    "latitude": 31.04,
    "longitude": 107.44,
    "city": null,
    "country": "China",
    "type": "SMALL"
  },
  {
    "IATA": "DZU",
    "cityCode": "DZU",
    "countryCode": "86",
    "name": "Dazu Air Base",
    "latitude": 29.6362,
    "longitude": 105.774,
    "city": "Longgang",
    "country": "China",
    "type": "SMALL"
  },
  {
    "IATA": "EAA",
    "cityCode": "EAA",
    "countryCode": "1",
    "name": "Eagle Airport",
    "latitude": 64.7764,
    "longitude": -141.151,
    "city": "Tok",
    "country": "United States",
    "type": "SMALL"
  },
  {
    "IATA": "EDD",
    "cityCode": "EDD",
    "countryCode": "61",
    "name": "Erldunda",
    "latitude": -25.25,
    "longitude": 133.2,
    "city": null,
    "country": "Australia",
    "type": "SMALL"
  },
  {
    "IATA": "EDF",
    "cityCode": "ANC",
    "countryCode": "1",
    "name": "Elmendorf Air Force Base",
    "latitude": 61.251,
    "longitude": -149.807,
    "city": null,
    "country": "United States",
    "type": "MEDIUM"
  },
  {
    "IATA": "EDN",
    "cityCode": "EDN",
    "countryCode": "1",
    "name": "Enterprise Muni Airport",
    "latitude": 31.2997,
    "longitude": -85.8998,
    "city": null,
    "country": "Russia",
    "type": "SMALL"
  },
  {
    "IATA": "EDR",
    "cityCode": "EDR",
    "countryCode": "61",
    "name": "Edward River Airport",
    "latitude": -14.8965,
    "longitude": 141.609,
    "city": "Edward River",
    "country": "Australia",
    "type": "SMALL"
  },
  {
    "IATA": "EEK",
    "cityCode": "EEK",
    "countryCode": "1",
    "name": "Eek Airport",
    "latitude": 60.2137,
    "longitude": -162.044,
    "city": "Eek",
    "country": "United States",
    "type": "SMALL"
  },
  {
    "IATA": "EFK",
    "cityCode": "EFK",
    "countryCode": "1",
    "name": "Newport State Airport",
    "latitude": 44.8888,
    "longitude": -72.2292,
    "city": null,
    "country": "United States",
    "type": "SMALL"
  },
  {
    "IATA": "EGX",
    "cityCode": "EGX",
    "countryCode": "1",
    "name": "Egegik Airport",
    "latitude": 58.1855,
    "longitude": -157.375,
    "city": "Egegik",
    "country": "United States",
    "type": "MEDIUM"
  },
  {
    "IATA": "EHM",
    "cityCode": "EHM",
    "countryCode": "1",
    "name": "Cape Newenham LRRS Airport",
    "latitude": 58.6464,
    "longitude": -162.063,
    "city": null,
    "country": "United States",
    "type": "MEDIUM"
  },
  {
    "IATA": "EHU",
    "cityCode": "EHU",
    "countryCode": "86",
    "name": "Ezhou Huahu Airport",
    "latitude": 30.3429,
    "longitude": 115.03,
    "city": "Ezhou",
    "country": "China",
    "type": "LARGE"
  },
  {
    "IATA": "EIE",
    "cityCode": "EIE",
    "countryCode": "7",
    "name": "Yeniseysk Airport",
    "latitude": 58.4742,
    "longitude": 92.1125,
    "city": "Yeniseysk",
    "country": "Russia",
    "type": "MEDIUM"
  },
  {
    "IATA": "EIH",
    "cityCode": "EIH",
    "countryCode": "61",
    "name": "Einasleigh",
    "latitude": -18.50447295,
    "longitude": 144.0941307,
    "city": null,
    "country": "Australia",
    "type": "SMALL"
  },
  {
    "IATA": "EIK",
    "cityCode": "EIK",
    "countryCode": "7",
    "name": "Yeysk",
    "latitude": 46.68697795,
    "longitude": 38.23715809,
    "city": "Yeysk",
    "country": "Russia",
    "type": "MEDIUM"
  },
  {
    "IATA": "EIL",
    "cityCode": "FAI",
    "countryCode": "1",
    "name": "Eielson Air Force Base",
    "latitude": 64.6657,
    "longitude": -147.102,
    "city": null,
    "country": "United States",
    "type": "MEDIUM"
  },
  {
    "IATA": "EJN",
    "cityCode": "EJN",
    "countryCode": "86",
    "name": "Ejin Banner Taolai Airport",
    "latitude": 42.01684485,
    "longitude": 100.9972535,
    "city": "Dalain Hob",
    "country": "China",
    "type": "SMALL"
  },
  {
    "IATA": "EKD",
    "cityCode": "EKD",
    "countryCode": "61",
    "name": "Elkedra",
    "latitude": -21.15,
    "longitude": 135.55,
    "city": null,
    "country": "Australia",
    "type": "SMALL"
  },
  {
    "IATA": "EKS",
    "cityCode": "EKS",
    "countryCode": "7",
    "name": "Shakhtyorsk Airport",
    "latitude": 49.1903,
    "longitude": 142.083,
    "city": "Shakhtersk",
    "country": "Russia",
    "type": "SMALL"
  },
  {
    "IATA": "ELC",
    "cityCode": "ELC",
    "countryCode": "61",
    "name": "Elcho Island Airport",
    "latitude": -12.0194,
    "longitude": 135.571,
    "city": "Darwin",
    "country": "Australia",
    "type": "MEDIUM"
  },
  {
    "IATA": "ELI",
    "cityCode": "ELI",
    "countryCode": "1",
    "name": "Elim Airport",
    "latitude": 64.6147,
    "longitude": -162.272,
    "city": "Elim",
    "country": "United States",
    "type": "SMALL"
  },
  {
    "IATA": "EMK",
    "cityCode": "EMK",
    "countryCode": "1",
    "name": "Emmonak Airport",
    "latitude": 62.7861,
    "longitude": -164.491,
    "city": "Alakanuk",
    "country": "United States",
    "type": "MEDIUM"
  },
  {
    "IATA": "ENB",
    "cityCode": "ENB",
    "countryCode": "61",
    "name": "Eneabba Airport",
    "latitude": -29.8325,
    "longitude": 115.246,
    "city": null,
    "country": "Australia",
    "type": "SMALL"
  },
  {
    "IATA": "END",
    "cityCode": "WDG",
    "countryCode": "1",
    "name": "Vance Air Force Base",
    "latitude": 36.3392,
    "longitude": -97.9165,
    "city": null,
    "country": "United States",
    "type": "MEDIUM"
  },
  {
    "IATA": "ENH",
    "cityCode": "ENH",
    "countryCode": "86",
    "name": "Enshi Xujiaping Airport",
    "latitude": 30.3203,
    "longitude": 109.485,
    "city": "Enshi",
    "country": "China",
    "type": "MEDIUM"
  },
  {
    "IATA": "ENN",
    "cityCode": "ENN",
    "countryCode": "1",
    "name": "Nenana Municipal Airport",
    "latitude": 64.5473,
    "longitude": -149.074,
    "city": null,
    "country": "United States",
    "type": "MEDIUM"
  },
  {
    "IATA": "ENY",
    "cityCode": "ENY",
    "countryCode": "86",
    "name": "Yan'an Ershilipu Airport",
    "latitude": 36.6369,
    "longitude": 109.554,
    "city": "Bao'an",
    "country": "China",
    "type": "MEDIUM"
  },
  {
    "IATA": "ERB",
    "cityCode": "ERB",
    "countryCode": "61",
    "name": "Pukatja Airport (Ernabella Airport)",
    "latitude": -26.2633,
    "longitude": 132.182,
    "city": null,
    "country": "Australia",
    "type": "SMALL"
  },
  {
    "IATA": "ERG",
    "cityCode": "ERG",
    "countryCode": "7",
    "name": "Erbogachen Airport",
    "latitude": 61.275,
    "longitude": 108.03,
    "city": "Yerbogachen",
    "country": "Russia",
    "type": "SMALL"
  },
  {
    "IATA": "ERL",
    "cityCode": "ERL",
    "countryCode": "86",
    "name": "Erenhot Saiwusu International Airport",
    "latitude": 43.4225,
    "longitude": 112.097,
    "city": "Erenhot",
    "country": "China",
    "type": "MEDIUM"
  },
  {
    "IATA": "ERQ",
    "cityCode": "ERQ",
    "countryCode": "61",
    "name": "Elrose Airport",
    "latitude": -20.9764,
    "longitude": 141.007,
    "city": null,
    "country": "Australia",
    "type": "SMALL"
  },
  {
    "IATA": "ESD",
    "cityCode": "ESD",
    "countryCode": "1",
    "name": "Orcas Island Airport",
    "latitude": 48.7082,
    "longitude": -122.91,
    "city": "Eastsound",
    "country": "United States",
    "type": "SMALL"
  },
  {
    "IATA": "ESL",
    "cityCode": "ESL",
    "countryCode": "7",
    "name": "Elista Airport",
    "latitude": 46.3739,
    "longitude": 44.3309,
    "city": "Troitskoye",
    "country": "Russia",
    "type": "MEDIUM"
  },
  {
    "IATA": "ETD",
    "cityCode": "ETD",
    "countryCode": "61",
    "name": "Etadunna Airport",
    "latitude": -28.7408,
    "longitude": 138.589,
    "city": null,
    "country": "Australia",
    "type": "SMALL"
  },
  {
    "IATA": "EUC",
    "cityCode": "EUC",
    "countryCode": "61",
    "name": "Eucla Airport",
    "latitude": -31.7,
    "longitude": 128.883,
    "city": null,
    "country": "Australia",
    "type": "SMALL"
  },
  {
    "IATA": "EVD",
    "cityCode": "EVD",
    "countryCode": "61",
    "name": "Eva Downs",
    "latitude": -18.0009995,
    "longitude": 134.8630066,
    "city": null,
    "country": "Australia",
    "type": "SMALL"
  },
  {
    "IATA": "EXM",
    "cityCode": "EXM",
    "countryCode": "61",
    "name": "Exmouth Airport",
    "latitude": -22.0333,
    "longitude": 114.1,
    "city": null,
    "country": "Australia",
    "type": "SMALL"
  },
  {
    "IATA": "EYK",
    "cityCode": "EYK",
    "countryCode": "7",
    "name": "Beloyarsk Airport",
    "latitude": 63.6869,
    "longitude": 66.6986,
    "city": "Beloyarskiy",
    "country": "Russia",
    "type": "MEDIUM"
  },
  {
    "IATA": "EZV",
    "cityCode": "EZV",
    "countryCode": "7",
    "name": "Berezovo",
    "latitude": 63.92265695,
    "longitude": 65.03761634,
    "city": "Berezovo",
    "country": "Russia",
    "type": "MEDIUM"
  },
  {
    "IATA": "FAF",
    "cityCode": "FAF",
    "countryCode": "1",
    "name": "Felker Army Airfield",
    "latitude": 37.1325,
    "longitude": -76.6088,
    "city": null,
    "country": "United States",
    "type": "MEDIUM"
  },
  {
    "IATA": "FAI",
    "cityCode": "FAI",
    "countryCode": "1",
    "name": "Fairbanks International Airport",
    "latitude": 64.8151,
    "longitude": -147.856,
    "city": "Fairbanks",
    "country": "United States",
    "type": "LARGE"
  },
  {
    "IATA": "FBK",
    "cityCode": "FAI",
    "countryCode": "1",
    "name": "Ladd Army Airfield",
    "latitude": 64.8375,
    "longitude": -147.614,
    "city": null,
    "country": "United States",
    "type": "MEDIUM"
  },
  {
    "IATA": "FCM",
    "cityCode": "MSP",
    "countryCode": "1",
    "name": "Flying Cloud Airport",
    "latitude": 44.8272,
    "longitude": -93.4571,
    "city": null,
    "country": "United States",
    "type": "SMALL"
  },
  {
    "IATA": "FID",
    "cityCode": "FID",
    "countryCode": "1",
    "name": "Elizabeth Field",
    "latitude": 41,
    "longitude": -72,
    "city": null,
    "country": "United States",
    "type": "SMALL"
  },
  {
    "IATA": "FIK",
    "cityCode": "FIK",
    "countryCode": "61",
    "name": "Finke Airport",
    "latitude": -25.5947,
    "longitude": 134.583,
    "city": null,
    "country": "Australia",
    "type": "SMALL"
  },
  {
    "IATA": "FIZ",
    "cityCode": "FIZ",
    "countryCode": "61",
    "name": "Fitzroy Crossing Airport",
    "latitude": -18.1819,
    "longitude": 125.559,
    "city": null,
    "country": "Australia",
    "type": "MEDIUM"
  },
  {
    "IATA": "FKJ",
    "cityCode": "FKJ",
    "countryCode": "81",
    "name": "Fukui Airport",
    "latitude": 36.1428,
    "longitude": 136.224,
    "city": "Maruoka",
    "country": "Japan",
    "type": "MEDIUM"
  },
  {
    "IATA": "FKS",
    "cityCode": "FKS",
    "countryCode": "81",
    "name": "Fukushima Airport",
    "latitude": 37.2274,
    "longitude": 140.431,
    "city": "Sukagawa",
    "country": "Japan",
    "type": "MEDIUM"
  },
  {
    "IATA": "FLL",
    "cityCode": "FLL",
    "countryCode": "1",
    "name": "Fort Lauderdale-Hollywood International Airport",
    "latitude": 26.0726,
    "longitude": -80.1527,
    "city": "Dania Beach",
    "country": "United States",
    "type": "LARGE"
  },
  {
    "IATA": "FLT",
    "cityCode": "FLT",
    "countryCode": "1",
    "name": "Flat",
    "latitude": 62.4525,
    "longitude": -157.9888889,
    "city": null,
    "country": "United States",
    "type": "SMALL"
  },
  {
    "IATA": "FLX",
    "cityCode": "NFL",
    "countryCode": "1",
    "name": "Fallon Municipal Airport",
    "latitude": 39.4991,
    "longitude": -118.749,
    "city": null,
    "country": "United States",
    "type": "SMALL"
  },
  {
    "IATA": "FLY",
    "cityCode": "FLY",
    "countryCode": "61",
    "name": "Finley Airport",
    "latitude": -35.6667,
    "longitude": 145.55,
    "city": null,
    "country": "Australia",
    "type": "SMALL"
  },
  {
    "IATA": "FNL",
    "cityCode": "FNL",
    "countryCode": "1",
    "name": "Northern Colorado Regional Airport",
    "latitude": 40.4518,
    "longitude": -105.011,
    "city": "Loveland",
    "country": "United States",
    "type": "SMALL"
  },
  {
    "IATA": "FOC",
    "cityCode": "FOC",
    "countryCode": "86",
    "name": "Fuzhou Changle International Airport",
    "latitude": 25.9351,
    "longitude": 119.663,
    "city": "Fuzhou",
    "country": "China",
    "type": "LARGE"
  },
  {
    "IATA": "FOE",
    "cityCode": "TOP",
    "countryCode": "1",
    "name": "Topeka Regional Airport",
    "latitude": 38.9509,
    "longitude": -95.6636,
    "city": null,
    "country": "United States",
    "type": "MEDIUM"
  },
  {
    "IATA": "FOS",
    "cityCode": "FOS",
    "countryCode": "61",
    "name": "Forrest Airport",
    "latitude": -30.8381,
    "longitude": 128.115,
    "city": null,
    "country": "Australia",
    "type": "MEDIUM"
  },
  {
    "IATA": "FRD",
    "cityCode": "FRD",
    "countryCode": "1",
    "name": "Friday Harbor Airport",
    "latitude": 48.522,
    "longitude": -123.024,
    "city": "Friday Harbor",
    "country": "United States",
    "type": "SMALL"
  },
  {
    "IATA": "FSI",
    "cityCode": "FSI",
    "countryCode": "1",
    "name": "Henry Post Army Airfield (Fort Sill)",
    "latitude": 34.6498,
    "longitude": -98.4022,
    "city": null,
    "country": "United States",
    "type": "MEDIUM"
  },
  {
    "IATA": "FSZ",
    "cityCode": "FSZ",
    "countryCode": "81",
    "name": "Shizuoka Airport (Mt. Fuji Shizuoka Airport)",
    "latitude": 34.796,
    "longitude": 138.188,
    "city": "Shimada",
    "country": "Japan",
    "type": "MEDIUM"
  },
  {
    "IATA": "FTW",
    "cityCode": "FTW",
    "countryCode": "1",
    "name": "Fort Worth Meacham International Airport",
    "latitude": 32.8198,
    "longitude": -97.3624,
    "city": null,
    "country": "United States",
    "type": "MEDIUM"
  },
  {
    "IATA": "FUG",
    "cityCode": "FUG",
    "countryCode": "86",
    "name": "Fuyang Xiguan Airport",
    "latitude": 32.8822,
    "longitude": 115.734,
    "city": "Fuyang",
    "country": "China",
    "type": "MEDIUM"
  },
  {
    "IATA": "FUJ",
    "cityCode": "FUJ",
    "countryCode": "81",
    "name": "Fukue Airport (Goto-Fukue Airport)",
    "latitude": 32.6663,
    "longitude": 128.833,
    "city": "Fukuecho",
    "country": "Japan",
    "type": "MEDIUM"
  },
  {
    "IATA": "FUK",
    "cityCode": "FUK",
    "countryCode": "81",
    "name": "Fukuoka Airport (Itazuke Air Base)",
    "latitude": 33.5859,
    "longitude": 130.451,
    "city": "Fukuoka-shi",
    "country": "Japan",
    "type": "LARGE"
  },
  {
    "IATA": "FUO",
    "cityCode": "FUO",
    "countryCode": "86",
    "name": "Foshan Shadi Airport",
    "latitude": 23.0833,
    "longitude": 113.07,
    "city": "Guangzhou",
    "country": "China",
    "type": "MEDIUM"
  },
  {
    "IATA": "FVL",
    "cityCode": "FVL",
    "countryCode": "61",
    "name": "Flora Valley Airport",
    "latitude": -18.2833,
    "longitude": 128.417,
    "city": null,
    "country": "Australia",
    "type": "SMALL"
  },
  {
    "IATA": "FWH",
    "cityCode": "DFW",
    "countryCode": "1",
    "name": "NAS Fort Worth JRB / Carswell Field",
    "latitude": 32.7692,
    "longitude": -97.4415,
    "city": null,
    "country": "United States",
    "type": "MEDIUM"
  },
  {
    "IATA": "FWL",
    "cityCode": "FWL",
    "countryCode": "1",
    "name": "Farewell Airport",
    "latitude": 62.5093,
    "longitude": -153.892,
    "city": null,
    "country": "United States",
    "type": "SMALL"
  },
  {
    "IATA": "FYJ",
    "cityCode": "FYJ",
    "countryCode": "86",
    "name": "Fuyuan Dongji Airport",
    "latitude": 48.1995,
    "longitude": 134.366,
    "city": "Fuyuan",
    "country": "China",
    "type": "MEDIUM"
  },
  {
    "IATA": "FYN",
    "cityCode": "FYN",
    "countryCode": "86",
    "name": "Fuyun Koktokay Airport",
    "latitude": 46.8042,
    "longitude": 89.512,
    "city": "Kalatongke",
    "country": "China",
    "type": "MEDIUM"
  },
  {
    "IATA": "FYU",
    "cityCode": "FYU",
    "countryCode": "1",
    "name": "Fort Yukon Airport",
    "latitude": 66.5715,
    "longitude": -145.25,
    "city": "Fort Yukon",
    "country": "United States",
    "type": "MEDIUM"
  },
  {
    "IATA": "GAB",
    "cityCode": "GAB",
    "countryCode": "1",
    "name": "Gabbs Airport",
    "latitude": 38.9241,
    "longitude": -117.959,
    "city": null,
    "country": "United States",
    "type": "SMALL"
  },
  {
    "IATA": "GAJ",
    "cityCode": "GAJ",
    "countryCode": "81",
    "name": "Yamagata Airport (Junmachi Airport)",
    "latitude": 38.4119,
    "longitude": 140.371,
    "city": "Higashine",
    "country": "Japan",
    "type": "MEDIUM"
  },
  {
    "IATA": "GAL",
    "cityCode": "GAL",
    "countryCode": "1",
    "name": "Edward G. Pitka Sr. Airport",
    "latitude": 64.7362,
    "longitude": -156.937,
    "city": "Galena",
    "country": "United States",
    "type": "MEDIUM"
  },
  {
    "IATA": "GAM",
    "cityCode": "GAM",
    "countryCode": "1",
    "name": "Gambell Airport",
    "latitude": 63.7668,
    "longitude": -171.733,
    "city": "Gambell",
    "country": "United States",
    "type": "MEDIUM"
  },
  {
    "IATA": "GBH",
    "cityCode": "GBH",
    "countryCode": "1",
    "name": "Galbraith Lake Airport",
    "latitude": 68.4797,
    "longitude": -149.49,
    "city": null,
    "country": "United States",
    "type": "SMALL"
  },
  {
    "IATA": "GBL",
    "cityCode": "GBL",
    "countryCode": "61",
    "name": "South Goulburn Island Airport",
    "latitude": -11.65,
    "longitude": 133.382,
    "city": null,
    "country": "Australia",
    "type": "SMALL"
  },
  {
    "IATA": "GBP",
    "cityCode": "GBP",
    "countryCode": "61",
    "name": "Gamboola Airport",
    "latitude": -16.55,
    "longitude": 143.667,
    "city": null,
    "country": "Australia",
    "type": "SMALL"
  },
  {
    "IATA": "GBV",
    "cityCode": "GBV",
    "countryCode": "61",
    "name": "Gibb River Airport",
    "latitude": -16.4233,
    "longitude": 126.445,
    "city": null,
    "country": "Australia",
    "type": "SMALL"
  },
  {
    "IATA": "GBW",
    "cityCode": "GBW",
    "countryCode": "61",
    "name": "Ginbata Airport",
    "latitude": -22.5812,
    "longitude": 120.036,
    "city": null,
    "country": "Australia",
    "type": "SMALL"
  },
  {
    "IATA": "GCN",
    "cityCode": "GCN",
    "countryCode": "1",
    "name": "Grand Canyon National Park Airport",
    "latitude": 35.9524,
    "longitude": -112.147,
    "city": null,
    "country": "United States",
    "type": "MEDIUM"
  },
  {
    "IATA": "GDD",
    "cityCode": "GDD",
    "countryCode": "61",
    "name": "Gordon Downs Airport",
    "latitude": -18.6781,
    "longitude": 128.592,
    "city": null,
    "country": "Australia",
    "type": "SMALL"
  },
  {
    "IATA": "GDX",
    "cityCode": "GDX",
    "countryCode": "7",
    "name": "Sokol Airport",
    "latitude": 59.911,
    "longitude": 150.72,
    "city": "Sokol",
    "country": "Russia",
    "type": "MEDIUM"
  },
  {
    "IATA": "GDZ",
    "cityCode": "GDZ",
    "countryCode": "7",
    "name": "Gelendzhik Airport",
    "latitude": 44.5821,
    "longitude": 38.0125,
    "city": "Gelendzhik",
    "country": "Russia",
    "type": "MEDIUM"
  },
  {
    "IATA": "GEE",
    "cityCode": "GEE",
    "countryCode": "61",
    "name": "George Town Aerodrome",
    "latitude": -41.08,
    "longitude": 146.84,
    "city": null,
    "country": "Australia",
    "type": "SMALL"
  },
  {
    "IATA": "GGD",
    "cityCode": "GGD",
    "countryCode": "61",
    "name": "Gregory Downs Airport",
    "latitude": -18.625,
    "longitude": 139.233,
    "city": null,
    "country": "Australia",
    "type": "SMALL"
  },
  {
    "IATA": "GHN",
    "cityCode": "GHN",
    "countryCode": "86",
    "name": "Guanghan Airport",
    "latitude": 30.9485,
    "longitude": 104.33,
    "city": "Guang'an",
    "country": "China",
    "type": "SMALL"
  },
  {
    "IATA": "GIC",
    "cityCode": "GIC",
    "countryCode": "61",
    "name": "Boigu Island Airport",
    "latitude": -9.23278,
    "longitude": 142.218,
    "city": "Kubin Village",
    "country": "Australia",
    "type": "SMALL"
  },
  {
    "IATA": "GKN",
    "cityCode": "GKN",
    "countryCode": "1",
    "name": "Gulkana Airport",
    "latitude": 62.1549,
    "longitude": -145.457,
    "city": null,
    "country": "United States",
    "type": "MEDIUM"
  },
  {
    "IATA": "GLB",
    "cityCode": "GLB",
    "countryCode": "1",
    "name": "San Calos Apache",
    "latitude": 5.95,
    "longitude": -10.033333,
    "city": null,
    "country": "United States",
    "type": "SMALL"
  },
  {
    "IATA": "GLG",
    "cityCode": "GLG",
    "countryCode": "61",
    "name": "Glengyle Airport",
    "latitude": -24.8083,
    "longitude": 139.6,
    "city": null,
    "country": "Australia",
    "type": "SMALL"
  },
  {
    "IATA": "GLM",
    "cityCode": "GLM",
    "countryCode": "61",
    "name": "Glenormiston Airport",
    "latitude": -22.8883,
    "longitude": 138.825,
    "city": null,
    "country": "Australia",
    "type": "SMALL"
  },
  {
    "IATA": "GLT",
    "cityCode": "GLT",
    "countryCode": "61",
    "name": "Gladstone Airport",
    "latitude": -23.8697,
    "longitude": 151.223,
    "city": "Gladstone",
    "country": "Australia",
    "type": "MEDIUM"
  },
  {
    "IATA": "GLV",
    "cityCode": "GLV",
    "countryCode": "1",
    "name": "Golovin Airport",
    "latitude": 64.5505,
    "longitude": -163.007,
    "city": "Golovin",
    "country": "United States",
    "type": "SMALL"
  },
  {
    "IATA": "GMQ",
    "cityCode": "GMQ",
    "countryCode": "86",
    "name": "Golog Maqin Airport",
    "latitude": 34.4181,
    "longitude": 100.301,
    "city": "Dawu",
    "country": "China",
    "type": "MEDIUM"
  },
  {
    "IATA": "GMT",
    "cityCode": "GMT",
    "countryCode": "1",
    "name": "Granite Mountain Air Station",
    "latitude": 65.4021,
    "longitude": -161.281,
    "city": null,
    "country": "United States",
    "type": "SMALL"
  },
  {
    "IATA": "GMV",
    "cityCode": "GMV",
    "countryCode": "1",
    "name": "Monument Valley",
    "latitude": 37.0175832,
    "longitude": -110.2022618,
    "city": null,
    "country": "United States",
    "type": "SMALL"
  },
  {
    "IATA": "GNU",
    "cityCode": "GNU",
    "countryCode": "1",
    "name": "Goodnews Bay",
    "latitude": 59.1184801,
    "longitude": -161.5785768,
    "city": "Goodnews Bay",
    "country": "United States",
    "type": "SMALL"
  },
  {
    "IATA": "GOJ",
    "cityCode": "GOJ",
    "countryCode": "7",
    "name": "Nizhny Novgorod International Airport (Strigino Airport)",
    "latitude": 56.2301,
    "longitude": 43.784,
    "city": "Gorbatovka",
    "country": "Russia",
    "type": "MEDIUM"
  },
  {
    "IATA": "GOQ",
    "cityCode": "GOQ",
    "countryCode": "86",
    "name": "Golmud Airport",
    "latitude": 36.4006,
    "longitude": 94.7861,
    "city": "Guolemude",
    "country": "China",
    "type": "MEDIUM"
  },
  {
    "IATA": "GOS",
    "cityCode": null,
    "countryCode": "61",
    "name": "Somersby Airfield",
    "latitude": -33.3678,
    "longitude": 151.3,
    "city": null,
    "country": "Australia",
    "type": "SMALL"
  },
  {
    "IATA": "GOV",
    "cityCode": "GOV",
    "countryCode": "61",
    "name": "Gove Airport",
    "latitude": -12.2694,
    "longitude": 136.818,
    "city": "Gove",
    "country": "Australia",
    "type": "MEDIUM"
  },
  {
    "IATA": "GPD",
    "cityCode": "GPD",
    "countryCode": "61",
    "name": "Mount Gordon Airport",
    "latitude": -19.7726,
    "longitude": 139.404,
    "city": null,
    "country": "Australia",
    "type": "SMALL"
  },
  {
    "IATA": "GRV",
    "cityCode": "GRV",
    "countryCode": "7",
    "name": "Grozny Airport",
    "latitude": 43.3883,
    "longitude": 45.6986,
    "city": "Staraya Sunzha",
    "country": "Russia",
    "type": "MEDIUM"
  },
  {
    "IATA": "GSC",
    "cityCode": "GSC",
    "countryCode": "61",
    "name": "Gascoyne Junction Airport",
    "latitude": -25.0546,
    "longitude": 115.203,
    "city": null,
    "country": "Australia",
    "type": "SMALL"
  },
  {
    "IATA": "GST",
    "cityCode": "GST",
    "countryCode": "1",
    "name": "Gustavus Airport",
    "latitude": 58.4253,
    "longitude": -135.707,
    "city": "Gustavus",
    "country": "United States",
    "type": "MEDIUM"
  },
  {
    "IATA": "GTE",
    "cityCode": "GTE",
    "countryCode": "61",
    "name": "Groote Eylandt Airport",
    "latitude": -13.975,
    "longitude": 136.46,
    "city": "Darwin",
    "country": "Australia",
    "type": "MEDIUM"
  },
  {
    "IATA": "GTT",
    "cityCode": "GTT",
    "countryCode": "61",
    "name": "Georgetown Airport",
    "latitude": -18.305,
    "longitude": 143.53,
    "city": "Georgetown",
    "country": "Australia",
    "type": "SMALL"
  },
  {
    "IATA": "GVN",
    "cityCode": "GVN",
    "countryCode": "7",
    "name": "Sovetskaya Gavan Airport",
    "latitude": 48.927,
    "longitude": 140.034,
    "city": "Mayskiy",
    "country": "Russia",
    "type": "MEDIUM"
  },
  {
    "IATA": "GVP",
    "cityCode": "GVP",
    "countryCode": "61",
    "name": "Greenvale Airport",
    "latitude": -18.9966,
    "longitude": 145.014,
    "city": null,
    "country": "Australia",
    "type": "SMALL"
  },
  {
    "IATA": "GWS",
    "cityCode": "GWS",
    "countryCode": "1",
    "name": "Glenwood Springs Municipal Airport",
    "latitude": 39.5083,
    "longitude": -107.311,
    "city": null,
    "country": "United States",
    "type": "SMALL"
  },
  {
    "IATA": "GXH",
    "cityCode": "GXH",
    "countryCode": "86",
    "name": "Gannan Xiahe Airport",
    "latitude": 34.8105,
    "longitude": 102.645,
    "city": "Nawu",
    "country": "China",
    "type": "MEDIUM"
  },
  {
    "IATA": "GYG",
    "cityCode": "GYG",
    "countryCode": "7",
    "name": "Magan Airport",
    "latitude": 62.1035,
    "longitude": 129.545,
    "city": "Magan",
    "country": "Russia",
    "type": "MEDIUM"
  },
  {
    "IATA": "GYL",
    "cityCode": "GYL",
    "countryCode": "61",
    "name": "Argyle Airport",
    "latitude": -16.6369,
    "longitude": 128.451,
    "city": "Argyle",
    "country": "Australia",
    "type": "SMALL"
  },
  {
    "IATA": "GYS",
    "cityCode": "GYS",
    "countryCode": "86",
    "name": "Guangyuan Panlong Airport",
    "latitude": 32.3911,
    "longitude": 105.702,
    "city": "Guangyuan",
    "country": "China",
    "type": "MEDIUM"
  },
  {
    "IATA": "GYU",
    "cityCode": "GYU",
    "countryCode": "86",
    "name": "Guyuan Liupanshan Airport",
    "latitude": 36.0789,
    "longitude": 106.217,
    "city": "Shirak",
    "country": "China",
    "type": "MEDIUM"
  },
  {
    "IATA": "GYZ",
    "cityCode": "GYZ",
    "countryCode": "61",
    "name": "Gruyere Mine Airport",
    "latitude": -28.0339912,
    "longitude": 123.8140464,
    "city": null,
    "country": "Australia",
    "type": "SMALL"
  },
  {
    "IATA": "GZG",
    "cityCode": "GZG",
    "countryCode": "86",
    "name": "Garze Gesar Airport",
    "latitude": 31.7548325,
    "longitude": 99.553507,
    "city": "Ganzi",
    "country": "China",
    "type": "SMALL"
  },
  {
    "IATA": "HAC",
    "cityCode": "HAC",
    "countryCode": "81",
    "name": "Hachijojima Airport",
    "latitude": 33.115,
    "longitude": 139.786,
    "city": "Hachijo-machi",
    "country": "Japan",
    "type": "MEDIUM"
  },
  {
    "IATA": "HAK",
    "cityCode": "HAK",
    "countryCode": "86",
    "name": "Haikou Meilan International Airport",
    "latitude": 19.9349,
    "longitude": 110.459,
    "city": "Haikou",
    "country": "China",
    "type": "LARGE"
  },
  {
    "IATA": "HAN",
    "cityCode": "HAN",
    "countryCode": "84",
    "name": "Noi Bai International Airport",
    "latitude": 21.2212,
    "longitude": 105.807,
    "city": "Ha Noi",
    "country": "Vietnam",
    "type": "LARGE"
  },
  {
    "IATA": "HAY",
    "cityCode": "HAY",
    "countryCode": "1",
    "name": "Haycock",
    "latitude": 65.2008333,
    "longitude": -161.1566667,
    "city": null,
    "country": "United States",
    "type": "SMALL"
  },
  {
    "IATA": "HAY",
    "cityCode": null,
    "name": "Hacaritama Airport",
    "latitude": 8.24722,
    "longitude": -73.5819,
    "city": null,
    "country": "United States",
    "type": "SMALL"
  },
  {
    "IATA": "HBB",
    "cityCode": "HOB",
    "countryCode": "1",
    "name": "Industrial Airpark",
    "latitude": 32.7,
    "longitude": -103.13333,
    "city": null,
    "country": "United States",
    "type": "SMALL"
  },
  {
    "IATA": "HBQ",
    "cityCode": null,
    "countryCode": "86",
    "name": "Haibei Qilian Airport",
    "latitude": 38.012,
    "longitude": 100.644,
    "city": null,
    "country": "China",
    "type": "SMALL"
  },
  {
    "IATA": "HCA",
    "cityCode": null,
    "countryCode": "1",
    "name": "Big Spring McMahon-Wrinkle Airport",
    "latitude": 32.2126,
    "longitude": -101.522,
    "city": null,
    "country": "United States",
    "type": "SMALL"
  },
  {
    "IATA": "HCJ",
    "cityCode": "HCJ",
    "countryCode": "86",
    "name": "Hechi Jinchengjiang Airport",
    "latitude": 24.805,
    "longitude": 107.7,
    "city": "Nandan Chengguanzhen",
    "country": "China",
    "type": "MEDIUM"
  },